[
  {
    "id": "sikgaek-baekban-trip_restaurant_365",
    "name": "가평 명지쉼터가든",
    "address": "경기 가평군 북면 가화로 777 (이곡리 207-2)",
    "lat": 37.8766103,
    "lng": 127.5297256
  },
  {
    "id": "sikgaek-baekban-trip_restaurant_364",
    "name": "가평 민기남씨네 솥뚜껑닭매운탕",
    "address": "경기 가평군 설악면 유명로 654-57 (가일리 184-2)",
    "lat": 37.6034427,
    "lng": 127.4956033
  },
  {
    "id": "sikgaek-baekban-trip_restaurant_362",
    "name": "가평 샘말식당",
    "address": "경기 가평군 청평면 경춘로 1457 (상천리 205)",
    "lat": 37.779697,
    "lng": 127.4640825
  },
  {
    "id": "sikgaek-baekban-trip_restaurant_361",
    "name": "가평 송원막국수",
    "address": "경기 가평군 가평읍 가화로 76-1 (읍내리 363-1)",
    "lat": 37.8266817,
    "lng": 127.5152354
  },
  {
    "id": "sikgaek-baekban-trip_restaurant_701",
    "name": "가평 쉐누",
    "address": "경기 가평군 청평면 잠곡로91번길 29 (청평리 229-1)",
    "lat": 37.7392439,
    "lng": 127.4318642
  },
  {
    "id": "sikgaek-baekban-trip_restaurant_363",
    "name": "가평 장모님댁",
    "address": "경기 가평군 설악면 자잠로 8 (신천리 463-5)",
    "lat": 37.6782865,
    "lng": 127.4887349
  },
  {
    "id": "sikgaek-baekban-trip_restaurant_702",
    "name": "가평 지중해",
    "address": "경기 가평군 가평읍 석봉로 214 (읍내리 635-1)",
    "lat": 37.8340775,
    "lng": 127.5097181
  },
  {
    "id": "sikgaek-baekban-trip_restaurant_704",
    "name": "가평 출퇴근",
    "address": "경기 가평군 가평읍 석봉로 206 (읍내리 615-2)",
    "lat": 37.8333616,
    "lng": 127.509829
  },
  {
    "id": "sikgaek-baekban-trip_restaurant_703",
    "name": "가평 황보네주막",
    "address": "경기 가평군 설악면 다락재로 8 (회곡리 산22-1)",
    "lat": 37.6765703,
    "lng": 127.4699579
  },
  {
    "id": "sikgaek-baekban-trip_restaurant_655",
    "name": "갈비탕집(갈비탕)",
    "address": "서울 성동구 청계천로10가길 10-7 (마장동 443-23)",
    "lat": 37.5696503,
    "lng": 127.0332838
  },
  {
    "id": "sikgaek-baekban-trip_restaurant_253",
    "name": "강릉 미경이네 횟집",
    "address": "강원 강릉시 주문진읍 해안로 2017-1 (주문리 829-72)",
    "lat": 37.9069228,
    "lng": 128.824428
  },
  {
    "id": "sikgaek-baekban-trip_restaurant_248",
    "name": "강릉 벌집",
    "address": "강원 강릉시 경강로2069번길 15 (임당동 60-2)",
    "lat": 37.7544956,
    "lng": 128.8928202
  },
  {
    "id": "sikgaek-baekban-trip_restaurant_651",
    "name": "강릉 북청해장국 (북청집)",
    "address": "강원 강릉시 주문진읍 해안로 1766-2 (주문리 312-457)",
    "lat": 37.892463,
    "lng": 128.8292566
  },
  {
    "id": "sikgaek-baekban-trip_restaurant_650",
    "name": "강릉 불개미식당",
    "address": "강원 강릉시 중앙시장1길 8 (성남동 62-4)",
    "lat": 37.7530926,
    "lng": 128.8984516
  },
  {
    "id": "sikgaek-baekban-trip_restaurant_649",
    "name": "강릉 수제어묵고로케",
    "address": "강원 강릉시 금성로13번길 8 (성남동 53-1)",
    "lat": 37.7539611,
    "lng": 128.8992102
  },
  {
    "id": "sikgaek-baekban-trip_restaurant_652",
    "name": "강릉 저팔계콧구멍",
    "address": "강원 강릉시 곶감전길 12 (성남동 107)",
    "lat": 37.752056,
    "lng": 128.8969598
  },
  {
    "id": "sikgaek-baekban-trip_restaurant_251",
    "name": "강릉 주문진해물국수",
    "address": "강원 강릉시 성덕포남로188번길 10 (포남동 1167)",
    "lat": 37.7688141,
    "lng": 128.9093229
  },
  {
    "id": "sikgaek-baekban-trip_restaurant_252",
    "name": "강릉 철뚝소머리집",
    "address": "강원 강릉시 주문진읍 철둑길 42 (주문리 326-2)",
    "lat": 37.8920822,
    "lng": 128.8243702
  },
  {
    "id": "sikgaek-baekban-trip_restaurant_250",
    "name": "강릉 콜롬보식당",
    "address": "강원 강릉시 중앙시장3길 32 (성남동 103-1)",
    "lat": 37.7521064,
    "lng": 128.8982267
  },
  {
    "id": "sikgaek-baekban-trip_restaurant_249",
    "name": "강릉 항구마차",
    "address": "강원 강릉시 옥계면 금진리 149-3",
    "lat": 37.6487158,
    "lng": 129.0471078
  },
  {
    "id": "sikgaek-baekban-trip_restaurant_001",
    "name": "강진 광주식당",
    "address": "전남 강진군 강진읍 시장길 17-14 (동성리 187-5)",
    "lat": 34.640336,
    "lng": 126.7741397
  },
  {
    "id": "sikgaek-baekban-trip_restaurant_002",
    "name": "강진 우리식당",
    "address": "전남 강진군 도암면 도암중앙로 81 (항촌리 1128-3)",
    "lat": 34.5470857,
    "lng": 126.7280846
  },
  {
    "id": "sikgaek-baekban-trip_restaurant_003",
    "name": "강진 탐진대중음식점 (탐진머리고기)",
    "address": "전남 강진군 강진읍 보은로 149 (동성리 184-15)",
    "lat": 34.638691,
    "lng": 126.774408
  },
  {
    "id": "sikgaek-baekban-trip_restaurant_421",
    "name": "경주 동일횟집",
    "address": "경북 경주시 양남면 양남로 227 (수렴리 151-4)",
    "lat": 35.6667474,
    "lng": 129.4629675
  },
  {
    "id": "sikgaek-baekban-trip_restaurant_420",
    "name": "경주 보배김밥 (성동시장)",
    "address": "경북 경주시 원화로281번길 11 (성동동 51-1)",
    "lat": 35.8453995,
    "lng": 129.216311
  },
  {
    "id": "sikgaek-baekban-trip_restaurant_418",
    "name": "경주 원조콩국",
    "address": "경북 경주시 첨성로 113 (황남동 142-2)",
    "lat": 35.833449,
    "lng": 129.2147152
  },
  {
    "id": "sikgaek-baekban-trip_restaurant_423",
    "name": "경주 퇴근길숯불갈비",
    "address": "경북 경주시 금성로 190 (사정동 114-3)",
    "lat": 35.8343242,
    "lng": 129.2074377
  },
  {
    "id": "sikgaek-baekban-trip_restaurant_422",
    "name": "경주 평양냉면집",
    "address": "경북 경주시 원효로 109-2 (노동동 81-1)",
    "lat": 35.8422359,
    "lng": 129.2129762
  },
  {
    "id": "sikgaek-baekban-trip_restaurant_419",
    "name": "경주 할매문어집 (성동시장)",
    "address": "경북 경주시 원화로281번길 11 (성동동 57-3)",
    "lat": 35.8453995,
    "lng": 129.216311
  },
  {
    "id": "sikgaek-baekban-trip_restaurant_330",
    "name": "고성 40년전통오미냉면",
    "address": "강원 고성군 토성면 아야진해변길 73 (아야진리 45)",
    "lat": 38.2718749,
    "lng": 128.5552716
  },
  {
    "id": "sikgaek-baekban-trip_restaurant_353",
    "name": "고성 개미집",
    "address": "경남 고성군 하이면 자란만로 498 (덕명리 472)",
    "lat": 34.9036526,
    "lng": 128.1415457
  },
  {
    "id": "sikgaek-baekban-trip_restaurant_352",
    "name": "고성 군령포하모자연산횟집",
    "address": "경남 고성군 삼산면 두포5길 426 (두포리 28-5)",
    "lat": 34.9172399,
    "lng": 128.297294
  },
  {
    "id": "sikgaek-baekban-trip_restaurant_355",
    "name": "고성 기와실비",
    "address": "경남 고성군 회화면 배둔로 14-7 (배둔리 819-64)",
    "lat": 35.0562168,
    "lng": 128.3681545
  },
  {
    "id": "sikgaek-baekban-trip_restaurant_567",
    "name": "고성 남경식당",
    "address": "강원 고성군 토성면 성대로 183 (성대리 497)",
    "lat": 38.2543507,
    "lng": 128.5089661
  },
  {
    "id": "sikgaek-baekban-trip_restaurant_568",
    "name": "고성 녹원식당",
    "address": "강원 고성군 토성면 교암길 60 (교암리 22-1)",
    "lat": 38.2905144,
    "lng": 128.5464725
  },
  {
    "id": "sikgaek-baekban-trip_restaurant_697",
    "name": "고성 베짱이문어국밥",
    "address": "강원 고성군 토성면 천학정길 12 (교암리 177-10)",
    "lat": 38.2892991,
    "lng": 128.5480467
  },
  {
    "id": "sikgaek-baekban-trip_restaurant_700",
    "name": "고성 부두식당",
    "address": "강원 고성군 현내면 한나루로 138-1 (대진리 111-13)",
    "lat": 38.5000437,
    "lng": 128.4242223
  },
  {
    "id": "sikgaek-baekban-trip_restaurant_699",
    "name": "고성 산북소나무막국수",
    "address": "강원 고성군 거진읍 산북길 32 (산북리 77)",
    "lat": 38.4546042,
    "lng": 128.395171
  },
  {
    "id": "sikgaek-baekban-trip_restaurant_332",
    "name": "고성 삼거리기사식당",
    "address": "강원 고성군 거진읍 대대3길 7 (대대리 300-6)",
    "lat": 38.3883351,
    "lng": 128.4590216
  },
  {
    "id": "sikgaek-baekban-trip_restaurant_698",
    "name": "고성 송암현대떡방앗간",
    "address": "강원 고성군 죽왕면 동해대로 5623 (송암리 237)",
    "lat": 38.3064031,
    "lng": 128.5359703
  },
  {
    "id": "sikgaek-baekban-trip_restaurant_356",
    "name": "고성 수양식당",
    "address": "경남 고성군 동해면 동해로 1590 (양촌리 957-1)",
    "lat": 35.0451615,
    "lng": 128.4447593
  },
  {
    "id": "sikgaek-baekban-trip_restaurant_566",
    "name": "고성 쌍둥이네식당",
    "address": "강원 고성군 현내면 한나루로 136-1 (대진리 111-1)",
    "lat": 38.4998872,
    "lng": 128.4242574
  },
  {
    "id": "sikgaek-baekban-trip_restaurant_354",
    "name": "고성 옥천식당",
    "address": "경남 고성군 개천면 연화산1로 544 (북평리 414-40)",
    "lat": 35.0867279,
    "lng": 128.2629113
  },
  {
    "id": "sikgaek-baekban-trip_restaurant_331",
    "name": "고성 제비호식당",
    "address": "강원 고성군 거진읍 거진항길 29 (거진리 287-251)",
    "lat": 38.4472015,
    "lng": 128.456414
  },
  {
    "id": "sikgaek-baekban-trip_restaurant_329",
    "name": "고성 항포구",
    "address": "강원 고성군 거진읍 거진항1길 13 (거진리 22-3)",
    "lat": 38.4486482,
    "lng": 128.4593976
  },
  {
    "id": "sikgaek-baekban-trip_restaurant_333",
    "name": "고성 해녀세자매",
    "address": "강원 고성군 현내면 대진항길 147 (대진리 5-10)",
    "lat": 38.5026226,
    "lng": 128.427493
  },
  {
    "id": "sikgaek-baekban-trip_restaurant_502",
    "name": "고창 뭉치네 풍천장어전문",
    "address": "전북 고창군 아산면 중촌길 13 (삼인리 287-10)",
    "lat": 35.5030859,
    "lng": 126.5858204
  },
  {
    "id": "sikgaek-baekban-trip_restaurant_501",
    "name": "고창 싱싱수산식당",
    "address": "전북 고창군 고창읍 시장안길 26 (읍내리 368-11)",
    "lat": 35.4321437,
    "lng": 126.6981581
  },
  {
    "id": "sikgaek-baekban-trip_restaurant_500",
    "name": "고창 작은항구",
    "address": "전북 고창군 심원면 상전1길 45 (하전리 266)",
    "lat": 35.5425458,
    "lng": 126.566105
  },
  {
    "id": "sikgaek-baekban-trip_restaurant_432",
    "name": "고흥 다미식당",
    "address": "전남 고흥군 두원면 두원로 477 (학곡리 49-5)",
    "lat": 34.6458917,
    "lng": 127.2735318
  },
  {
    "id": "sikgaek-baekban-trip_restaurant_428",
    "name": "고흥 수문식당",
    "address": "전남 고흥군 남양면 망월로 674-24 (월정리 155-5)",
    "lat": 34.7744026,
    "lng": 127.3854769
  },
  {
    "id": "sikgaek-baekban-trip_restaurant_430",
    "name": "고흥 순천횟집",
    "address": "전남 고흥군 봉래면 나로도항길 117 (신금리 1000-80)",
    "lat": 34.4651411,
    "lng": 127.4540855
  },
  {
    "id": "sikgaek-baekban-trip_restaurant_429",
    "name": "고흥 원조소문난갈비탕",
    "address": "전남 고흥군 동강면 고흥로 4259 (유둔리 312)",
    "lat": 34.7797289,
    "lng": 127.3330911
  },
  {
    "id": "sikgaek-baekban-trip_restaurant_431",
    "name": "고흥 화정상회",
    "address": "전남 고흥군 고흥읍 시장천변길 29-16 (남계리 625-2)",
    "lat": 34.6078305,
    "lng": 127.2865078
  },
  {
    "id": "sikgaek-baekban-trip_restaurant_240",
    "name": "공주 계룡산묵사랑",
    "address": "충남 공주시 전진배길 389 (신기동 240)",
    "lat": 36.4351754,
    "lng": 127.1497055
  },
  {
    "id": "sikgaek-baekban-trip_restaurant_706",
    "name": "공주 귀연당",
    "address": "충남 공주시 의당면 의당로 981 (월곡리 289-1)",
    "lat": 36.5547721,
    "lng": 127.1532582
  },
  {
    "id": "sikgaek-baekban-trip_restaurant_237",
    "name": "공주 늘푸른솔",
    "address": "충남 공주시 사곡면 정안마곡사로 1198 (유룡리 379-1)",
    "lat": 36.5869385,
    "lng": 127.0467833
  },
  {
    "id": "sikgaek-baekban-trip_restaurant_236",
    "name": "공주 무궁화회관",
    "address": "충남 공주시 당간지주길 8-1 (반죽동 263)",
    "lat": 36.4520393,
    "lng": 127.1217664
  },
  {
    "id": "sikgaek-baekban-trip_restaurant_708",
    "name": "공주 별난주막",
    "address": "충남 공주시 반포면 동학사1로 266-14 (학봉리 730-10)",
    "lat": 36.3584202,
    "lng": 127.237317
  },
  {
    "id": "sikgaek-baekban-trip_restaurant_241",
    "name": "공주 소나무집",
    "address": "충남 공주시 반포면 마암안산길 4-12 (마암리 126)",
    "lat": 36.4191531,
    "lng": 127.2140527
  },
  {
    "id": "sikgaek-baekban-trip_restaurant_239",
    "name": "공주 시장정육점식당",
    "address": "충남 공주시 백미고을길 10-5 (금성동 177-3)",
    "lat": 36.4659309,
    "lng": 127.122216
  },
  {
    "id": "sikgaek-baekban-trip_restaurant_572",
    "name": "공주 유구식당 (유구정육식당)",
    "address": "충남 공주시 유구읍 시장길 33-4 (석남리 278-1)",
    "lat": 36.553351,
    "lng": 126.951557
  },
  {
    "id": "sikgaek-baekban-trip_restaurant_705",
    "name": "공주 전통궁중칼국수",
    "address": "충남 공주시 금벽로 679 (월송동 179-5)",
    "lat": 36.4557922,
    "lng": 127.1569156
  },
  {
    "id": "sikgaek-baekban-trip_restaurant_707",
    "name": "공주 청벽가든",
    "address": "충남 공주시 반포면 창벽로 750 (마암리 529-2)",
    "lat": 36.4332858,
    "lng": 127.2127751
  },
  {
    "id": "sikgaek-baekban-trip_restaurant_238",
    "name": "공주 청양분식",
    "address": "충남 공주시 산성동 186-118",
    "lat": 36.4577048,
    "lng": 127.123808
  },
  {
    "id": "sikgaek-baekban-trip_restaurant_322",
    "name": "광양 경도식당",
    "address": "전남 광양시 광양읍 희양현로 25 (읍내리 350)",
    "lat": 34.9747325,
    "lng": 127.5855812
  },
  {
    "id": "sikgaek-baekban-trip_restaurant_537",
    "name": "광양 부흥식당",
    "address": "전남 광양시 중마청룡길 40 (중동 1294)",
    "lat": 34.9440046,
    "lng": 127.6992177
  },
  {
    "id": "sikgaek-baekban-trip_restaurant_323",
    "name": "광양 시장국밥",
    "address": "전남 광양시 광양읍 백운로 3 (목성리 696-3)",
    "lat": 34.9711607,
    "lng": 127.5904533
  },
  {
    "id": "sikgaek-baekban-trip_restaurant_538",
    "name": "광양 쌈지촌",
    "address": "전남 광양시 남산2길 3 (광영동 719-15)",
    "lat": 34.9613949,
    "lng": 127.7240426
  },
  {
    "id": "sikgaek-baekban-trip_restaurant_321",
    "name": "광양 예촌식당",
    "address": "전남 광양시 남산1길 27 (광영동 729-12)",
    "lat": 34.9616506,
    "lng": 127.7253185
  },
  {
    "id": "sikgaek-baekban-trip_restaurant_320",
    "name": "광양 해돋이식당",
    "address": "전남 광양시 다압면 지막길 102 (도사리 594-2)",
    "lat": 35.0815025,
    "lng": 127.7140996
  },
  {
    "id": "sikgaek-baekban-trip_restaurant_319",
    "name": "광양 홍쌍리 청매실농원",
    "address": "전남 광양시 다압면 지막1길 55 (도사리 403)",
    "lat": 35.0755075,
    "lng": 127.7166725
  },
  {
    "id": "sikgaek-baekban-trip_restaurant_125",
    "name": "광주 골메골",
    "address": "광주 광산구 평동로 424 (명화동 226-9)",
    "lat": 35.122744,
    "lng": 126.7223264
  },
  {
    "id": "sikgaek-baekban-trip_restaurant_127",
    "name": "광주 광신보리밥",
    "address": "광주 북구 두리봉길 2-1 (두암동 582-23)",
    "lat": 35.1759007,
    "lng": 126.9314722
  },
  {
    "id": "sikgaek-baekban-trip_restaurant_128",
    "name": "광주 무등분식",
    "address": "광주 북구 독립로 249 (북동 307-10)",
    "lat": 35.1539431,
    "lng": 126.9100513
  },
  {
    "id": "sikgaek-baekban-trip_restaurant_126",
    "name": "광주 원조두유",
    "address": "광주 동구 무등로 513-2 (산수동 509-29)",
    "lat": 35.1559407,
    "lng": 126.9358191
  },
  {
    "id": "sikgaek-baekban-trip_restaurant_129",
    "name": "광주 육전명가",
    "address": "광주 서구 상무자유로 174 (치평동 1244-12)",
    "lat": 35.1513087,
    "lng": 126.8532674
  },
  {
    "id": "sikgaek-baekban-trip_restaurant_130",
    "name": "광주 창신식당",
    "address": "광주 서구 금화로492번길 18-1 (농성동 627-16)",
    "lat": 35.1502908,
    "lng": 126.8930295
  },
  {
    "id": "sikgaek-baekban-trip_restaurant_519",
    "name": "광주 최미자소머리국밥",
    "address": "경기 광주시 곤지암읍 도척로 58 (삼리 42-1)",
    "lat": 37.3461324,
    "lng": 127.3354797
  },
  {
    "id": "sikgaek-baekban-trip_restaurant_517",
    "name": "광주 포비엣",
    "address": "경기 광주시 경안로41번길 1 (경안동 36-35)",
    "lat": 37.4091302,
    "lng": 127.256313
  },
  {
    "id": "sikgaek-baekban-trip_restaurant_150",
    "name": "구례 가야식당",
    "address": "전남 구례군 구례읍 5일시장작은길 14 (봉동리 194-10)",
    "lat": 35.2111905,
    "lng": 127.4690985
  },
  {
    "id": "sikgaek-baekban-trip_restaurant_148",
    "name": "구례 당치민박산장",
    "address": "전남 구례군 토지면 당치길 145 (내동리 137-1)",
    "lat": 35.2576946,
    "lng": 127.599978
  },
  {
    "id": "sikgaek-baekban-trip_restaurant_149",
    "name": "구례 동아식당",
    "address": "전남 구례군 구례읍 봉동길 4-5 (봉동리 238-3)",
    "lat": 35.2090311,
    "lng": 127.4683291
  },
  {
    "id": "sikgaek-baekban-trip_restaurant_153",
    "name": "구례 청천슈퍼(주민 전용공간)",
    "address": "전남 구례군 마산면 당몰샘로 18 (마산리 670-1)",
    "lat": 35.2214651,
    "lng": 127.4885802
  },
  {
    "id": "sikgaek-baekban-trip_restaurant_152",
    "name": "구례 한우식당",
    "address": "전남 구례군 구례읍 봉성로 111 (봉북리 353-3)",
    "lat": 35.2123027,
    "lng": 127.464522
  },
  {
    "id": "sikgaek-baekban-trip_restaurant_151",
    "name": "구례 함지박속흑돼지",
    "address": "전남 구례군 구례읍 중앙로 68 (봉동리 199-12)",
    "lat": 35.2117336,
    "lng": 127.4678994
  },
  {
    "id": "sikgaek-baekban-trip_restaurant_633",
    "name": "구리 돌다리집",
    "address": "경기 구리시 경춘로248번길 17 (수택동 531-10)",
    "lat": 37.6016091,
    "lng": 127.1439438
  },
  {
    "id": "sikgaek-baekban-trip_restaurant_631",
    "name": "구리 동갈전",
    "address": "경기 구리시 아차산로 411 (교문동 106)",
    "lat": 37.5917211,
    "lng": 127.1311173
  },
  {
    "id": "sikgaek-baekban-trip_restaurant_632",
    "name": "구리 우미관",
    "address": "경기 구리시 아차산로 57 (아천동 300-10)",
    "lat": 37.5635215,
    "lng": 127.1147598
  },
  {
    "id": "sikgaek-baekban-trip_restaurant_634",
    "name": "구리 홍어회찜",
    "address": "경기 구리시 안골로57번길 14-9 (수택동 377-45)",
    "lat": 37.5980748,
    "lng": 127.1378574
  },
  {
    "id": "sikgaek-baekban-trip_restaurant_618",
    "name": "군산 궁전장어매운탕",
    "address": "전북 군산시 현충로 12 (나운동 871-10)",
    "lat": 35.9567344,
    "lng": 126.6876185
  },
  {
    "id": "sikgaek-baekban-trip_restaurant_282",
    "name": "군산 뚱보식당",
    "address": "전북 군산시 오룡로 58-2 (명산동 22-1)",
    "lat": 35.9822775,
    "lng": 126.7100083
  },
  {
    "id": "sikgaek-baekban-trip_restaurant_283",
    "name": "군산 불타는명태찜",
    "address": "전북 군산시 경촌2길 38 (조촌동 826)",
    "lat": 35.9766627,
    "lng": 126.7371012
  },
  {
    "id": "sikgaek-baekban-trip_restaurant_617",
    "name": "군산 서수해장국",
    "address": "전북 군산시 서수면 남산로 306 (서수리 1383-1)",
    "lat": 35.9789729,
    "lng": 126.8589159
  },
  {
    "id": "sikgaek-baekban-trip_restaurant_616",
    "name": "군산 서우식당",
    "address": "전북 군산시 나운안2길 9-6 (나운동 516-4)",
    "lat": 35.9685428,
    "lng": 126.7052696
  },
  {
    "id": "sikgaek-baekban-trip_restaurant_285",
    "name": "군산 우리떡갈비",
    "address": "전북 군산시 백토로 36 (문화동 885-18)",
    "lat": 35.9760807,
    "lng": 126.7055967
  },
  {
    "id": "sikgaek-baekban-trip_restaurant_284",
    "name": "군산 일력생선",
    "address": "전북 군산시 구영5길 66-6 (신창동 45-8)",
    "lat": 35.9870094,
    "lng": 126.7093618
  },
  {
    "id": "sikgaek-baekban-trip_restaurant_368",
    "name": "나주 나주곰탕하얀집",
    "address": "전남 나주시 금성관길 6-1 (중앙동 48-17)",
    "lat": 35.0322393,
    "lng": 126.7172247
  },
  {
    "id": "sikgaek-baekban-trip_restaurant_366",
    "name": "나주 다복가든",
    "address": "전남 나주시 영산포로 192 (영산동 88-3)",
    "lat": 34.9984202,
    "lng": 126.7105182
  },
  {
    "id": "sikgaek-baekban-trip_restaurant_370",
    "name": "나주 섬말민물횟집",
    "address": "전남 나주시 세지면 세지로 420 (벽산리 57-3)",
    "lat": 34.9187843,
    "lng": 126.7452243
  },
  {
    "id": "sikgaek-baekban-trip_restaurant_369",
    "name": "나주 송현불고기",
    "address": "전남 나주시 건재로 193 (대호동 311-33)",
    "lat": 35.0507415,
    "lng": 126.7216891
  },
  {
    "id": "sikgaek-baekban-trip_restaurant_367",
    "name": "나주 진미옛날순대",
    "address": "전남 나주시 나주로 73 (송월동 744-1)",
    "lat": 35.0255175,
    "lng": 126.7163795
  },
  {
    "id": "sikgaek-baekban-trip_restaurant_574",
    "name": "남양주 개성집",
    "address": "경기 남양주시 와부읍 경강로 876 (팔당리 706)",
    "lat": 37.559487,
    "lng": 127.2349442
  },
  {
    "id": "sikgaek-baekban-trip_restaurant_576",
    "name": "남양주 광천정육점식당",
    "address": "경기 남양주시 진접읍 광릉내로 52 (부평리 525-8)",
    "lat": 37.7440993,
    "lng": 127.2003473
  },
  {
    "id": "sikgaek-baekban-trip_restaurant_573",
    "name": "남양주 수인씨의 마당",
    "address": "경기 남양주시 덕릉로 1115-49 (별내동 2265)",
    "lat": 37.6828567,
    "lng": 127.1090448
  },
  {
    "id": "sikgaek-baekban-trip_restaurant_575",
    "name": "남양주 옹기장터백화점 (옹기찻집)",
    "address": "경기 남양주시 화도읍 북한강로 1619 (금남리 198-11)",
    "lat": 37.6527194,
    "lng": 127.368325
  },
  {
    "id": "sikgaek-baekban-trip_restaurant_393",
    "name": "남원 동막골",
    "address": "전북 남원시 요천로 1537 (죽항동 59-6)",
    "lat": 35.4074658,
    "lng": 127.3874992
  },
  {
    "id": "sikgaek-baekban-trip_restaurant_394",
    "name": "남원 부산집",
    "address": "전북 남원시 의총로 11 (천거동 160-163)",
    "lat": 35.4016433,
    "lng": 127.3763967
  },
  {
    "id": "sikgaek-baekban-trip_restaurant_392",
    "name": "남원 인동할머니민박",
    "address": "전북 남원시 운봉읍 삼산길 8-4 (산덕리 790-5)",
    "lat": 35.4221473,
    "lng": 127.5235029
  },
  {
    "id": "sikgaek-baekban-trip_restaurant_391",
    "name": "남원 일출산채식당",
    "address": "전북 남원시 산내면 지리산로 799 (부운리 240)",
    "lat": 35.3741054,
    "lng": 127.5797212
  },
  {
    "id": "sikgaek-baekban-trip_restaurant_186",
    "name": "단양 가마골쉼터",
    "address": "충북 단양군 가곡면 새밭로 547-8 (어의곡리 613)",
    "lat": 36.9938706,
    "lng": 128.4301494
  },
  {
    "id": "sikgaek-baekban-trip_restaurant_187",
    "name": "단양 대산원조마늘순대",
    "address": "충북 단양군 단양읍 도전5길 25 (도전리 561)",
    "lat": 36.9820053,
    "lng": 128.369911
  },
  {
    "id": "sikgaek-baekban-trip_restaurant_225",
    "name": "담양 김순옥댓잎찹쌀도너츠",
    "address": "전남 담양군 담양읍 향교길 6-1 (향교리 287-1)",
    "lat": 35.3247849,
    "lng": 126.9858682
  },
  {
    "id": "sikgaek-baekban-trip_restaurant_230",
    "name": "담양 목화식당",
    "address": "전남 담양군 담양읍 천변5길 3 (천변리 137)",
    "lat": 35.3193185,
    "lng": 126.9798237
  },
  {
    "id": "sikgaek-baekban-trip_restaurant_227",
    "name": "담양 미소댓잎국수 (담양국수거리)",
    "address": "전남 담양군 담양읍 객사3길 20 (객사리 208)",
    "lat": 35.323963,
    "lng": 126.9831
  },
  {
    "id": "sikgaek-baekban-trip_restaurant_228",
    "name": "담양 부부식당",
    "address": "전남 담양군 담양읍 중앙로 18 (지침리 668)",
    "lat": 35.3147488,
    "lng": 126.9836065
  },
  {
    "id": "sikgaek-baekban-trip_restaurant_229",
    "name": "담양 원조제일숯불갈비",
    "address": "전남 담양군 담양읍 마두길 4 (강쟁리 1674)",
    "lat": 35.3006474,
    "lng": 126.979889
  },
  {
    "id": "sikgaek-baekban-trip_restaurant_226",
    "name": "담양 청운식당",
    "address": "전남 담양군 담양읍 담주1길 7 (담주리 85)",
    "lat": 35.3209353,
    "lng": 126.9815391
  },
  {
    "id": "sikgaek-baekban-trip_restaurant_515",
    "name": "대구 개미분식",
    "address": "대구 중구 동성로 70-10 (동문동 30-12)",
    "lat": 35.872767,
    "lng": 128.5963858
  },
  {
    "id": "sikgaek-baekban-trip_restaurant_513",
    "name": "대구 국일따로국밥",
    "address": "대구 중구 국채보상로 571 (전동 7-1)",
    "lat": 35.8710936,
    "lng": 128.5932203
  },
  {
    "id": "sikgaek-baekban-trip_restaurant_514",
    "name": "대구 남도횟집",
    "address": "대구 중구 경상감영길 165-5 (동문동 30-7)",
    "lat": 35.8725483,
    "lng": 128.5963327
  },
  {
    "id": "sikgaek-baekban-trip_restaurant_032",
    "name": "대구 미가식당",
    "address": "대구 달서구 달구벌대로309길 18 (죽전동 273-1)",
    "lat": 35.8506994,
    "lng": 128.5352263
  },
  {
    "id": "sikgaek-baekban-trip_restaurant_672",
    "name": "대구 산골기사식당",
    "address": "대구 동구 팔공산로 1666 (백안동 573)",
    "lat": 35.9565581,
    "lng": 128.6920436
  },
  {
    "id": "sikgaek-baekban-trip_restaurant_033",
    "name": "대구 삼미찜갈비 (삼미식당)",
    "address": "대구 중구 큰장로28길 25 (대신동 115-67)",
    "lat": 35.8700247,
    "lng": 128.5807761
  },
  {
    "id": "sikgaek-baekban-trip_restaurant_673",
    "name": "대구 송림식당",
    "address": "대구 동구 동부로 13-1 (신천동 556-1)",
    "lat": 35.8741723,
    "lng": 128.6141678
  },
  {
    "id": "sikgaek-baekban-trip_restaurant_512",
    "name": "대구 온돌방식당",
    "address": "대구 중구 동성로12길 72-9 (공평동 94-5)",
    "lat": 35.870574,
    "lng": 128.5997173
  },
  {
    "id": "sikgaek-baekban-trip_restaurant_034",
    "name": "대구 유창반점",
    "address": "대구 중구 명륜로 20 (남산동 253-1)",
    "lat": 35.8644681,
    "lng": 128.5886611
  },
  {
    "id": "sikgaek-baekban-trip_restaurant_674",
    "name": "대구 일경식당",
    "address": "대구 동구 효목로 28 (효목동 551-3)",
    "lat": 35.875755,
    "lng": 128.6396847
  },
  {
    "id": "sikgaek-baekban-trip_restaurant_036",
    "name": "대구 장원식당",
    "address": "대구 중구 태평로 256 (동인동1가 368-2)",
    "lat": 35.8723574,
    "lng": 128.6051511
  },
  {
    "id": "sikgaek-baekban-trip_restaurant_675",
    "name": "대구 진미통닭",
    "address": "대구 동구 아양로9길 10 (신암동 597-1)",
    "lat": 35.8830057,
    "lng": 128.6192564
  },
  {
    "id": "sikgaek-baekban-trip_restaurant_511",
    "name": "대구 호야막창",
    "address": "대구 달서구 선원남로 151 (용산동 419-1)",
    "lat": 35.8577571,
    "lng": 128.5167531
  },
  {
    "id": "sikgaek-baekban-trip_restaurant_035",
    "name": "대구 화개장터가마솥국밥",
    "address": "대구 북구 구암로42길 6 (구암동 483-2)",
    "lat": 35.9310628,
    "lng": 128.56279
  },
  {
    "id": "sikgaek-baekban-trip_restaurant_625",
    "name": "대전 경동오징어국수",
    "address": "대전 동구 계족로 369 (성남동 200-342)",
    "lat": 36.3447893,
    "lng": 127.433176
  },
  {
    "id": "sikgaek-baekban-trip_restaurant_626",
    "name": "대전 대전갈비집",
    "address": "대전 중구 대흥로175번길 28 (대흥동 3-16)",
    "lat": 36.3265702,
    "lng": 127.4306476
  },
  {
    "id": "sikgaek-baekban-trip_restaurant_075",
    "name": "대전 뽀뽀분식",
    "address": "대전 중구 계룡로881번길 44 (용두동 13-18)",
    "lat": 36.3231154,
    "lng": 127.4141481
  },
  {
    "id": "sikgaek-baekban-trip_restaurant_076",
    "name": "대전 소나무집",
    "address": "대전 중구 대종로460번길 59 (대흥동 2-7)",
    "lat": 36.3269992,
    "lng": 127.4305912
  },
  {
    "id": "sikgaek-baekban-trip_restaurant_074",
    "name": "대전 진로집",
    "address": "대전 중구 중교로 45-5 (대흥동 314-1)",
    "lat": 36.3258591,
    "lng": 127.4247174
  },
  {
    "id": "sikgaek-baekban-trip_restaurant_073",
    "name": "대전 탑집",
    "address": "대전 중구 선화서로19번길 44 (선화동 430-6)",
    "lat": 36.3253663,
    "lng": 127.4169263
  },
  {
    "id": "sikgaek-baekban-trip_restaurant_077",
    "name": "대전 형제집",
    "address": "대전 중구 대흥로175번길 34 (대흥동 3-10)",
    "lat": 36.3267658,
    "lng": 127.4305673
  },
  {
    "id": "sikgaek-baekban-trip_restaurant_623",
    "name": "대전 회랑",
    "address": "대전 서구 제비네4길 9 (도마동 172-11)",
    "lat": 36.3138439,
    "lng": 127.3789882
  },
  {
    "id": "sikgaek-baekban-trip_restaurant_556",
    "name": "동해 동해바다곰치국",
    "address": "강원 동해시 일출로 179 (묵호진동 2-30)",
    "lat": 37.5583885,
    "lng": 129.1206488
  },
  {
    "id": "sikgaek-baekban-trip_restaurant_557",
    "name": "동해 부흥횟집",
    "address": "강원 동해시 일출로 93 (묵호진동 2-286)",
    "lat": 37.5520892,
    "lng": 129.1179553
  },
  {
    "id": "sikgaek-baekban-trip_restaurant_558",
    "name": "동해 삼송갈비",
    "address": "강원 동해시 송정로 39 (송정동 842-3)",
    "lat": 37.4972367,
    "lng": 129.1257305
  },
  {
    "id": "sikgaek-baekban-trip_restaurant_555",
    "name": "동해 시골",
    "address": "강원 동해시 지양길 9 (동회동 429-2)",
    "lat": 37.4929767,
    "lng": 129.1074854
  },
  {
    "id": "sikgaek-baekban-trip_restaurant_134",
    "name": "마산 보배아구찜",
    "address": "경남 창원시 마산합포구 창동거리길 51-25 (창동 159)",
    "lat": 35.2057528,
    "lng": 128.5753202
  },
  {
    "id": "sikgaek-baekban-trip_restaurant_136",
    "name": "마산 은혜추어탕",
    "address": "경남 창원시 마산합포구 산호시장길 35 (산호동 27-34)",
    "lat": 35.2190077,
    "lng": 128.5820038
  },
  {
    "id": "sikgaek-baekban-trip_restaurant_135",
    "name": "마산 화성갈비",
    "address": "경남 창원시 마산합포구 오동서7길 36 (중성동 77-13)",
    "lat": 35.2077511,
    "lng": 128.5760303
  },
  {
    "id": "sikgaek-baekban-trip_restaurant_133",
    "name": "마산 휘모리",
    "address": "경남 창원시 마산합포구 중앙남1길 9-1 (중앙동2가 3-95)",
    "lat": 35.195527,
    "lng": 128.566389
  },
  {
    "id": "sikgaek-baekban-trip_restaurant_050",
    "name": "목포 가락지죽집",
    "address": "전남 목포시 수문로 45 (남교동 127)",
    "lat": 34.7931189,
    "lng": 126.3812943
  },
  {
    "id": "sikgaek-baekban-trip_restaurant_043",
    "name": "목포 돌집",
    "address": "전남 목포시 번화로 67 (복만동 2-6)",
    "lat": 34.7878007,
    "lng": 126.3859378
  },
  {
    "id": "sikgaek-baekban-trip_restaurant_047",
    "name": "목포 명신식당",
    "address": "전남 목포시 영산로40번길 10 (중앙동2가 10-2)",
    "lat": 34.7860346,
    "lng": 126.3830424
  },
  {
    "id": "sikgaek-baekban-trip_restaurant_046",
    "name": "목포 미락식당",
    "address": "전남 목포시 백년대로231번길 12 (상동 924-5)",
    "lat": 34.8019785,
    "lng": 126.4140195
  },
  {
    "id": "sikgaek-baekban-trip_restaurant_045",
    "name": "목포 보리마당 가맥집",
    "address": "전남 목포시 보리마당로 29 (서산동 14-45)",
    "lat": 34.782524,
    "lng": 126.3763218
  },
  {
    "id": "sikgaek-baekban-trip_restaurant_051",
    "name": "목포 영란회집",
    "address": "전남 목포시 번화로 42-1 (만호동 1-5)",
    "lat": 34.7861216,
    "lng": 126.3840663
  },
  {
    "id": "sikgaek-baekban-trip_restaurant_048",
    "name": "목포 우정식육식당",
    "address": "전남 목포시 신흥로69번길 18-1 (상동 873-6)",
    "lat": 34.8057908,
    "lng": 126.4270557
  },
  {
    "id": "sikgaek-baekban-trip_restaurant_044",
    "name": "목포 은지네해장국",
    "address": "전남 목포시 삼학로18번길 2-2 (상락동1가 2-5)",
    "lat": 34.7897831,
    "lng": 126.3873761
  },
  {
    "id": "sikgaek-baekban-trip_restaurant_049",
    "name": "목포 조선쫄복탕",
    "address": "전남 목포시 해안로 115 (금화동 9-7)",
    "lat": 34.7808402,
    "lng": 126.3771139
  },
  {
    "id": "sikgaek-baekban-trip_restaurant_527",
    "name": "무안 곰솔낙지 (곰솔가든)",
    "address": "전남 무안군 망운면 운해로 1447 (목동리 388-4)",
    "lat": 35.0140706,
    "lng": 126.3956991
  },
  {
    "id": "sikgaek-baekban-trip_restaurant_528",
    "name": "무안 두암식당",
    "address": "전남 무안군 몽탄면 우명길 52 (사창리 697-2)",
    "lat": 34.9654556,
    "lng": 126.5189461
  },
  {
    "id": "sikgaek-baekban-trip_restaurant_529",
    "name": "무안 삼부자낙지",
    "address": "전남 무안군 삼향읍 남악5로52번길 13-7 (남악리 1721)",
    "lat": 34.8103329,
    "lng": 126.4727995
  },
  {
    "id": "sikgaek-baekban-trip_restaurant_526",
    "name": "무안 옛날시골밥상",
    "address": "전남 무안군 일로읍 시장길 17-10 (월암리 113-16)",
    "lat": 34.8472525,
    "lng": 126.4941139
  },
  {
    "id": "sikgaek-baekban-trip_restaurant_547",
    "name": "밀양 사자평명물식당",
    "address": "경남 밀양시 단장면 바드리길 8 (구천리 662)",
    "lat": 35.5227797,
    "lng": 128.9259938
  },
  {
    "id": "sikgaek-baekban-trip_restaurant_550",
    "name": "밀양 제일식당",
    "address": "경남 밀양시 하남읍 수산중앙로 41 (수산리 449-1)",
    "lat": 35.3748698,
    "lng": 128.7097333
  },
  {
    "id": "sikgaek-baekban-trip_restaurant_548",
    "name": "밀양 촌닭농장",
    "address": "경남 밀양시 초동면 초동로 584-11 (검암리 301)",
    "lat": 35.3876823,
    "lng": 128.6912335
  },
  {
    "id": "sikgaek-baekban-trip_restaurant_549",
    "name": "밀양 향촌갈비",
    "address": "경남 밀양시 내일상가1길 10 (내일동 142)",
    "lat": 35.492413,
    "lng": 128.7534508
  },
  {
    "id": "sikgaek-baekban-trip_restaurant_377",
    "name": "보령 고기요",
    "address": "충남 보령시 해수욕장6길 79 (신흑동 1908)",
    "lat": 36.308795,
    "lng": 126.5153245
  },
  {
    "id": "sikgaek-baekban-trip_restaurant_375",
    "name": "보령 대구식당",
    "address": "충남 보령시 오천면 오천해안로 778 (소성리 691-11)",
    "lat": 36.4387994,
    "lng": 126.5206891
  },
  {
    "id": "sikgaek-baekban-trip_restaurant_600",
    "name": "보령 대성식당",
    "address": "충남 보령시 대천항1길 180 (신흑동 950-26)",
    "lat": 36.3280484,
    "lng": 126.504724
  },
  {
    "id": "sikgaek-baekban-trip_restaurant_381",
    "name": "보령 못난이강정",
    "address": "충남 보령시 대천항로 382 (신흑동 1396-11)",
    "lat": 36.3277898,
    "lng": 126.5055572
  },
  {
    "id": "sikgaek-baekban-trip_restaurant_378",
    "name": "보령 부안토종민물장어",
    "address": "충남 보령시 대천로 160 (죽정동 485-7)",
    "lat": 36.3587757,
    "lng": 126.6083597
  },
  {
    "id": "sikgaek-baekban-trip_restaurant_603",
    "name": "보령 샘물식당",
    "address": "충남 보령시 청라면 원모루길 245 (나원리 942-4)",
    "lat": 36.3897093,
    "lng": 126.6747564
  },
  {
    "id": "sikgaek-baekban-trip_restaurant_376",
    "name": "보령 서부식당",
    "address": "충남 보령시 구상가길 10-3 (대천동 618-64)",
    "lat": 36.3492364,
    "lng": 126.5968372
  },
  {
    "id": "sikgaek-baekban-trip_restaurant_601",
    "name": "보령 웅천사천성 (사천성)",
    "address": "충남 보령시 웅천읍 장터3길 22 (대창리 434-28)",
    "lat": 36.2329016,
    "lng": 126.6008177
  },
  {
    "id": "sikgaek-baekban-trip_restaurant_379",
    "name": "보령 일등수산",
    "address": "충남 보령시 대천항1길 182 (신흑동 950-22)",
    "lat": 36.3281031,
    "lng": 126.5046691
  },
  {
    "id": "sikgaek-baekban-trip_restaurant_602",
    "name": "보령 하니쌈밥",
    "address": "충남 보령시 오천면 충청수영로 839-10 (소성리 691-12)",
    "lat": 36.4387913,
    "lng": 126.5208111
  },
  {
    "id": "sikgaek-baekban-trip_restaurant_683",
    "name": "보은 김천식당",
    "address": "충북 보은군 보은읍 삼산로1길 25-4 (삼산리 19-1)",
    "lat": 36.4824063,
    "lng": 127.7214232
  },
  {
    "id": "sikgaek-baekban-trip_restaurant_681",
    "name": "보은 신라식당",
    "address": "충북 보은군 보은읍 교사삼산길 40 (삼산리 155-2)",
    "lat": 36.4857911,
    "lng": 127.7172523
  },
  {
    "id": "sikgaek-baekban-trip_restaurant_682",
    "name": "보은 태화루",
    "address": "충북 보은군 마로면 관기송현로 102 (관기리 392-26)",
    "lat": 36.4351819,
    "lng": 127.8200572
  },
  {
    "id": "sikgaek-baekban-trip_restaurant_684",
    "name": "보은 혜성정육점식당",
    "address": "충북 보은군 보은읍 삼산남로 7-1 (삼산리 16-2)",
    "lat": 36.4828431,
    "lng": 127.7219584
  },
  {
    "id": "sikgaek-baekban-trip_restaurant_024",
    "name": "부산 가마솥돼지국밥",
    "address": "부산 영도구 남항시장길 350 (신선동2가 37-3)",
    "lat": 35.0874969,
    "lng": 129.044152
  },
  {
    "id": "sikgaek-baekban-trip_restaurant_025",
    "name": "부산 금성호",
    "address": "부산 남구 용호3동 6-5",
    "lat": 35.1280422,
    "lng": 129.1169588
  },
  {
    "id": "sikgaek-baekban-trip_restaurant_334",
    "name": "부산 금정산성막걸리 본점",
    "address": "부산 금정구 산성로 453 (금성동 554-1)",
    "lat": 35.2503508,
    "lng": 129.0564344
  },
  {
    "id": "sikgaek-baekban-trip_restaurant_338",
    "name": "부산 남해달인횟집",
    "address": "부산 사하구 사리로 40 (괴정동 310-1)",
    "lat": 35.103598,
    "lng": 128.9990966
  },
  {
    "id": "sikgaek-baekban-trip_restaurant_686",
    "name": "부산 내호냉면",
    "address": "부산 남구 우암번영로26번길 17 (우암동 189-671)",
    "lat": 35.1264806,
    "lng": 129.0708398
  },
  {
    "id": "sikgaek-baekban-trip_restaurant_525",
    "name": "부산 마라톤집",
    "address": "부산 부산진구 가야대로784번길 54 (부전동 519-13)",
    "lat": 35.1551107,
    "lng": 129.0571021
  },
  {
    "id": "sikgaek-baekban-trip_restaurant_685",
    "name": "부산 보림통닭",
    "address": "부산 동구 범곡북로 11 (범일동 1307-9)",
    "lat": 35.1416204,
    "lng": 129.0544741
  },
  {
    "id": "sikgaek-baekban-trip_restaurant_336",
    "name": "부산 선창갈미조개",
    "address": "부산 강서구 르노삼성대로 602 (명지동 1532-14)",
    "lat": 35.1014925,
    "lng": 128.929203
  },
  {
    "id": "sikgaek-baekban-trip_restaurant_023",
    "name": "부산 수복센타",
    "address": "부산 중구 남포길 25-3 (남포동2가 15-1)",
    "lat": 35.0988897,
    "lng": 129.0314752
  },
  {
    "id": "sikgaek-baekban-trip_restaurant_687",
    "name": "부산 아저씨대구탕",
    "address": "부산 해운대구 달맞이길62번가길 31 (중동 964)",
    "lat": 35.1586759,
    "lng": 129.1716304
  },
  {
    "id": "sikgaek-baekban-trip_restaurant_688",
    "name": "부산 양가네양곱창",
    "address": "부산 해운대구 구남로8번길 7-3 (우동 548-19)",
    "lat": 35.1628248,
    "lng": 129.1589788
  },
  {
    "id": "sikgaek-baekban-trip_restaurant_337",
    "name": "부산 원조18번완당 발국수",
    "address": "부산 서구 구덕로238번길 6 (부용동1가 69-12)",
    "lat": 35.1057123,
    "lng": 129.0204528
  },
  {
    "id": "sikgaek-baekban-trip_restaurant_020",
    "name": "부산 중리해녀촌",
    "address": "부산 영도구 절영로 355 (동삼동 628-1)",
    "lat": 35.0716472,
    "lng": 129.0573867
  },
  {
    "id": "sikgaek-baekban-trip_restaurant_339",
    "name": "부산 진주식당",
    "address": "부산 영도구 절영로14번길 2 (봉래동1가 94-3)",
    "lat": 35.0932132,
    "lng": 129.039956
  },
  {
    "id": "sikgaek-baekban-trip_restaurant_335",
    "name": "부산 청사초롱",
    "address": "부산 금정구 산성로 447 (금성동 554-15)",
    "lat": 35.250686,
    "lng": 129.0561031
  },
  {
    "id": "sikgaek-baekban-trip_restaurant_021",
    "name": "부산 한월식당",
    "address": "부산 중구 자갈치해안로 27 (남포동6가 9-2)",
    "lat": 35.0965269,
    "lng": 129.0282129
  },
  {
    "id": "sikgaek-baekban-trip_restaurant_523",
    "name": "부산 합천국밥집",
    "address": "부산 남구 용호로 235 (용호동 554-3)",
    "lat": 35.1112466,
    "lng": 129.1112571
  },
  {
    "id": "sikgaek-baekban-trip_restaurant_524",
    "name": "부산 해운대암소갈비집",
    "address": "부산 해운대구 중동2로10번길 32-10 (중동 1225-1)",
    "lat": 35.1635046,
    "lng": 129.166406
  },
  {
    "id": "sikgaek-baekban-trip_restaurant_022",
    "name": "부산 회국수할매집",
    "address": "부산 부산진구 서면문화로 5 (부전동 486-1)",
    "lat": 35.1582204,
    "lng": 129.0575753
  },
  {
    "id": "sikgaek-baekban-trip_restaurant_260",
    "name": "부안 곰소아리랑식당",
    "address": "전북 부안군 진서면 곰소항길 77-1 (곰소리 726)",
    "lat": 35.5871008,
    "lng": 126.6084573
  },
  {
    "id": "sikgaek-baekban-trip_restaurant_263",
    "name": "부안 동진식당",
    "address": "전북 부안군 부안읍 시장길 8-2 (서외리 21)",
    "lat": 35.7275054,
    "lng": 126.7334252
  },
  {
    "id": "sikgaek-baekban-trip_restaurant_264",
    "name": "부안 땅제가든",
    "address": "전북 부안군 보안면 청자로 1399 (우동리 132-1)",
    "lat": 35.6097502,
    "lng": 126.6421197
  },
  {
    "id": "sikgaek-baekban-trip_restaurant_499",
    "name": "부안 모꼬지바지락요리전문점",
    "address": "전북 고창군 부안면 인촌로 60 (선운리 721-12)",
    "lat": 35.5322344,
    "lng": 126.5975867
  },
  {
    "id": "sikgaek-baekban-trip_restaurant_262",
    "name": "부안 변산횟집",
    "address": "전북 부안군 부안읍 시장1길 6-9 (서외리 14-9)",
    "lat": 35.7267608,
    "lng": 126.7334631
  },
  {
    "id": "sikgaek-baekban-trip_restaurant_261",
    "name": "부안 전망좋은집",
    "address": "전북 부안군 변산면 변산로 3207-1 (도청리 536-5)",
    "lat": 35.6007011,
    "lng": 126.4855147
  },
  {
    "id": "sikgaek-baekban-trip_restaurant_265",
    "name": "부안 포마횟집",
    "address": "전북 부안군 계화면 간재로 447 (창북리 856-27)",
    "lat": 35.7633433,
    "lng": 126.693882
  },
  {
    "id": "sikgaek-baekban-trip_restaurant_571",
    "name": "부여 광명식당",
    "address": "충남 부여군 외산면 무량로 192 (만수리 96-1)",
    "lat": 36.3148627,
    "lng": 126.6949755
  },
  {
    "id": "sikgaek-baekban-trip_restaurant_569",
    "name": "부여 부여할매순대",
    "address": "충남 부여군 부여읍 사비로71번길 23 (동남리 511-5)",
    "lat": 36.2790143,
    "lng": 126.9078758
  },
  {
    "id": "sikgaek-baekban-trip_restaurant_570",
    "name": "부여 연잎담",
    "address": "충남 부여군 부여읍 계백로180번길 9-13 (동남리 598-2)",
    "lat": 36.2748407,
    "lng": 126.9012059
  },
  {
    "id": "sikgaek-baekban-trip_restaurant_055",
    "name": "삼척 길모퉁이 포차",
    "address": "강원 삼척시 봉황로 9-22 (남양동 341)",
    "lat": 37.440115,
    "lng": 129.1687151
  },
  {
    "id": "sikgaek-baekban-trip_restaurant_057",
    "name": "삼척 남궁스넥",
    "address": "강원 삼척시 성당길 93-14 (당저동 143-2)",
    "lat": 37.445149,
    "lng": 129.1628023
  },
  {
    "id": "sikgaek-baekban-trip_restaurant_056",
    "name": "삼척 미조리횟집",
    "address": "강원 삼척시 원덕읍 임원항구로 23 (임원리 129-3)",
    "lat": 37.2301319,
    "lng": 129.3450719
  },
  {
    "id": "sikgaek-baekban-trip_restaurant_053",
    "name": "삼척 부명칼국수",
    "address": "강원 삼척시 사대길 43 (남양동 6-17)",
    "lat": 37.4453662,
    "lng": 129.170414
  },
  {
    "id": "sikgaek-baekban-trip_restaurant_052",
    "name": "삼척 울릉도호박집",
    "address": "강원 삼척시 오십천로 496 (정상동 389-2)",
    "lat": 37.437696,
    "lng": 129.171783
  },
  {
    "id": "sikgaek-baekban-trip_restaurant_054",
    "name": "삼척 한우실비식당",
    "address": "강원 삼척시 도계읍 도계대한길 8-38 (도계리 297-2)",
    "lat": 37.2346149,
    "lng": 129.046697
  },
  {
    "id": "sikgaek-baekban-trip_restaurant_660",
    "name": "상주 남산가든",
    "address": "경북 상주시 신서문1길 137 (낙양동 187-1)",
    "lat": 36.4079002,
    "lng": 128.1531834
  },
  {
    "id": "sikgaek-baekban-trip_restaurant_595",
    "name": "상주 너구리식당",
    "address": "경북 상주시 서성3길 9 (서성동 59-11)",
    "lat": 36.417842,
    "lng": 128.1598778
  },
  {
    "id": "sikgaek-baekban-trip_restaurant_657",
    "name": "상주 서보냇가",
    "address": "경북 상주시 영남제일로 1971-14 (연원동 772-7)",
    "lat": 36.41199,
    "lng": 128.1307463
  },
  {
    "id": "sikgaek-baekban-trip_restaurant_658",
    "name": "상주 수라간",
    "address": "경북 상주시 상서문3길 119 (남성동 15-7)",
    "lat": 36.4143978,
    "lng": 128.1580462
  },
  {
    "id": "sikgaek-baekban-trip_restaurant_659",
    "name": "상주 영원식당",
    "address": "경북 상주시 사벌국면 덕담1길 82-10 (덕담리 439)",
    "lat": 36.4690009,
    "lng": 128.2105248
  },
  {
    "id": "sikgaek-baekban-trip_restaurant_006",
    "name": "서산 가야슈퍼",
    "address": "충남 서산시 운산면 개심사로 322 (신창리 18-2)",
    "lat": 36.7464488,
    "lng": 126.5843655
  },
  {
    "id": "sikgaek-baekban-trip_restaurant_010",
    "name": "서산 광진상회",
    "address": "충남 서산시 운산면 해운로 761 (원벌리 49-1)",
    "lat": 36.774622,
    "lng": 126.5687821
  },
  {
    "id": "sikgaek-baekban-trip_restaurant_005",
    "name": "서산 삼길포수산물직매장 (지은이네)",
    "address": "충남 서산시 대산읍 삼길포1로 72-2 (화곡리 1883)",
    "lat": 37.0041594,
    "lng": 126.4524958
  },
  {
    "id": "sikgaek-baekban-trip_restaurant_004",
    "name": "서산 쉼터식당",
    "address": "충남 서산시 부석면 천수만로 658-39 (창리 275-6)",
    "lat": 36.6237818,
    "lng": 126.374648
  },
  {
    "id": "sikgaek-baekban-trip_restaurant_007",
    "name": "서산 옛날빵집",
    "address": "충남 서산시 시장3길 12-6 (동문동 900-3)",
    "lat": 36.7821091,
    "lng": 126.4559334
  },
  {
    "id": "sikgaek-baekban-trip_restaurant_009",
    "name": "서산 웅도식당",
    "address": "충남 서산시 대산읍 탑골1길 19-14 (대산리 148-23)",
    "lat": 36.9352093,
    "lng": 126.4358976
  },
  {
    "id": "sikgaek-baekban-trip_restaurant_008",
    "name": "서산 정성맛집",
    "address": "충남 서산시 시장3길 3 (동문동 900)",
    "lat": 36.7824743,
    "lng": 126.4553543
  },
  {
    "id": "sikgaek-baekban-trip_restaurant_037",
    "name": "서울 28총각",
    "address": "서울 서대문구 통일로 107-21 (미근동 31-7)",
    "lat": 37.5641933,
    "lng": 126.9670289
  },
  {
    "id": "sikgaek-baekban-trip_restaurant_193",
    "name": "서울 개화옥",
    "address": "서울 강남구 압구정로50길 7 (신사동 661-18)",
    "lat": 37.5277407,
    "lng": 127.0385939
  },
  {
    "id": "sikgaek-baekban-trip_restaurant_276",
    "name": "서울 갯마을",
    "address": "서울 송파구 백제고분로34길 41 (석촌동 226)",
    "lat": 37.4987726,
    "lng": 127.0989233
  },
  {
    "id": "sikgaek-baekban-trip_restaurant_223",
    "name": "서울 경동맛집",
    "address": "서울 종로구 자하문로1길 7 (내자동 2-4)",
    "lat": 37.5764495,
    "lng": 126.9720014
  },
  {
    "id": "sikgaek-baekban-trip_restaurant_081",
    "name": "서울 고향집",
    "address": "서울 마포구 포은로8길 28 (망원동 414-20)",
    "lat": 37.5565244,
    "lng": 126.906303
  },
  {
    "id": "sikgaek-baekban-trip_restaurant_209",
    "name": "서울 고향집",
    "address": "서울 광진구 아차산로49길 30 (구의동 252-88)",
    "lat": 37.5382346,
    "lng": 127.0844448
  },
  {
    "id": "sikgaek-baekban-trip_restaurant_168",
    "name": "서울 골목식당",
    "address": "서울 중구 수표로 42-8 (저동2가 16-7)",
    "lat": 37.5650335,
    "lng": 126.9902773
  },
  {
    "id": "sikgaek-baekban-trip_restaurant_304",
    "name": "서울 골목집",
    "address": "서울 영등포구 도림로139가길 11-1 (문래동2가 42-6)",
    "lat": 37.5133366,
    "lng": 126.8932725
  },
  {
    "id": "sikgaek-baekban-trip_restaurant_105",
    "name": "서울 광주식당",
    "address": "서울 종로구 지봉로2길 15 (창신동 400-1)",
    "lat": 37.5708433,
    "lng": 127.0175429
  },
  {
    "id": "sikgaek-baekban-trip_restaurant_063",
    "name": "서울 구이마당",
    "address": "서울 용산구 대사관로 58 (한남동 639-8)",
    "lat": 37.5332556,
    "lng": 127.0045884
  },
  {
    "id": "sikgaek-baekban-trip_restaurant_154",
    "name": "서울 국시집",
    "address": "서울 성북구 창경궁로43길 9 (성북동1가 9)",
    "lat": 37.5884282,
    "lng": 127.0043232
  },
  {
    "id": "sikgaek-baekban-trip_restaurant_104",
    "name": "서울 금문장",
    "address": "서울 종로구 지봉로8길 45 (숭인동 61-30)",
    "lat": 37.5766089,
    "lng": 127.016174
  },
  {
    "id": "sikgaek-baekban-trip_restaurant_194",
    "name": "서울 금성스테이크부대찌개",
    "address": "서울 강남구 언주로174길 26 (신사동 640-1)",
    "lat": 37.5279728,
    "lng": 127.0358691
  },
  {
    "id": "sikgaek-baekban-trip_restaurant_656",
    "name": "서울 기분좋은한잔",
    "address": "서울 성동구 무학봉16길 1 (하왕십리동 975-36)",
    "lat": 37.5613553,
    "lng": 127.0313902
  },
  {
    "id": "sikgaek-baekban-trip_restaurant_064",
    "name": "서울 김경자 원조손칼국수보쌈",
    "address": "서울 성동구 금호산2길 20-1 (금호동3가 394)",
    "lat": 37.5487996,
    "lng": 127.0218463
  },
  {
    "id": "sikgaek-baekban-trip_restaurant_086",
    "name": "서울 김용안과자점",
    "address": "서울 용산구 한강대로 155-1 (한강로2가 259-1)",
    "lat": 37.5330849,
    "lng": 126.9712507
  },
  {
    "id": "sikgaek-baekban-trip_restaurant_169",
    "name": "서울 나드리식품",
    "address": "서울 중구 을지로33길 38 (주교동 208)",
    "lat": 37.5674014,
    "lng": 126.9985361
  },
  {
    "id": "sikgaek-baekban-trip_restaurant_465",
    "name": "서울 나뭇잎스시",
    "address": "서울 종로구 창의문로5길 2 (부암동 314-1)",
    "lat": 37.5925492,
    "lng": 126.9638844
  },
  {
    "id": "sikgaek-baekban-trip_restaurant_280",
    "name": "서울 남한산성식당 마천점",
    "address": "서울 송파구 마천로39길 5 (마천동 118-23)",
    "lat": 37.4983795,
    "lng": 127.1471741
  },
  {
    "id": "sikgaek-baekban-trip_restaurant_440",
    "name": "서울 남해바다",
    "address": "서울 마포구 토정로37길 46 (도화동 536)",
    "lat": 37.5426083,
    "lng": 126.9473124
  },
  {
    "id": "sikgaek-baekban-trip_restaurant_078",
    "name": "서울 너랑나랑호프",
    "address": "서울 마포구 월드컵로 61 (망원동 386-3)",
    "lat": 37.5546541,
    "lng": 126.9110584
  },
  {
    "id": "sikgaek-baekban-trip_restaurant_158",
    "name": "서울 달밝은집",
    "address": "서울 성북구 정릉로6길 35 (정릉동 957-4)",
    "lat": 37.6102264,
    "lng": 126.9945975
  },
  {
    "id": "sikgaek-baekban-trip_restaurant_245",
    "name": "서울 대성정육식당",
    "address": "서울 용산구 서빙고로95길 22 (보광동 63-2)",
    "lat": 37.5265514,
    "lng": 127.0021148
  },
  {
    "id": "sikgaek-baekban-trip_restaurant_122",
    "name": "서울 대원앤대원",
    "address": "서울 영등포구 국제금융로8길 34 (여의도동 36-4)",
    "lat": 37.5202377,
    "lng": 126.9272493
  },
  {
    "id": "sikgaek-baekban-trip_restaurant_534",
    "name": "서울 덕성각",
    "address": "서울 종로구 종로 258 (종로6가 253-6)",
    "lat": 37.5706635,
    "lng": 127.0064982
  },
  {
    "id": "sikgaek-baekban-trip_restaurant_196",
    "name": "서울 돌곰네",
    "address": "서울 강남구 언주로146길 18 (논현동 105)",
    "lat": 37.5193597,
    "lng": 127.0367435
  },
  {
    "id": "sikgaek-baekban-trip_restaurant_166",
    "name": "서울 동원집",
    "address": "서울 중구 을지로11길 22 (을지로3가 96-2)",
    "lat": 37.5673245,
    "lng": 126.9909524
  },
  {
    "id": "sikgaek-baekban-trip_restaurant_487",
    "name": "서울 라칸티나",
    "address": "서울 중구 을지로 19 (을지로1가 50)",
    "lat": 37.566308,
    "lng": 126.9799748
  },
  {
    "id": "sikgaek-baekban-trip_restaurant_693",
    "name": "서울 리숨두부",
    "address": "서울 서초구 원터4길 7 (원지동 374-1)",
    "lat": 37.4437312,
    "lng": 127.0557498
  },
  {
    "id": "sikgaek-baekban-trip_restaurant_552",
    "name": "서울 마마수제만두",
    "address": "서울 은평구 증산로 397 (신사동 336-3)",
    "lat": 37.591816,
    "lng": 126.9135266
  },
  {
    "id": "sikgaek-baekban-trip_restaurant_372",
    "name": "서울 맘코리안비스트로",
    "address": "서울 서초구 사평대로26길 48 (반포동 91-4)",
    "lat": 37.4980858,
    "lng": 126.9988869
  },
  {
    "id": "sikgaek-baekban-trip_restaurant_305",
    "name": "서울 매일낙지",
    "address": "서울 영등포구 경인로78길 3-16 (문래동1가 59-1)",
    "lat": 37.5118583,
    "lng": 126.8953679
  },
  {
    "id": "sikgaek-baekban-trip_restaurant_580",
    "name": "서울 맹돌이생선구이쌈밥",
    "address": "서울 중랑구 용마산로115길 59 (망우동 491-39)",
    "lat": 37.5982705,
    "lng": 127.0971887
  },
  {
    "id": "sikgaek-baekban-trip_restaurant_577",
    "name": "서울 묵동부대찌개",
    "address": "서울 중랑구 공릉로 42 (묵동 171-9)",
    "lat": 37.6144121,
    "lng": 127.0783085
  },
  {
    "id": "sikgaek-baekban-trip_restaurant_466",
    "name": "서울 미인과 자연",
    "address": "서울 종로구 세검정로9길 78 (구기동 20-14)",
    "lat": 37.6062465,
    "lng": 126.9597629
  },
  {
    "id": "sikgaek-baekban-trip_restaurant_359",
    "name": "서울 밀과보리",
    "address": "서울 종로구 창덕궁1길 32 (계동 140-56)",
    "lat": 37.579419,
    "lng": 126.9874771
  },
  {
    "id": "sikgaek-baekban-trip_restaurant_247",
    "name": "서울 바다식당",
    "address": "서울 용산구 이태원로 245 (한남동 738-24)",
    "lat": 37.5369241,
    "lng": 127.0000558
  },
  {
    "id": "sikgaek-baekban-trip_restaurant_596",
    "name": "서울 백송",
    "address": "서울 중구 다산로33다길 45 (신당동 248-32)",
    "lat": 37.5647672,
    "lng": 127.0134684
  },
  {
    "id": "sikgaek-baekban-trip_restaurant_221",
    "name": "서울 별미곱창",
    "address": "서울 종로구 자하문로1길 50 (필운동 187)",
    "lat": 37.5769398,
    "lng": 126.969715
  },
  {
    "id": "sikgaek-baekban-trip_restaurant_594",
    "name": "서울 보건옥",
    "address": "서울 중구 창경궁로8길 12 (주교동 89-1)",
    "lat": 37.5685355,
    "lng": 126.9987609
  },
  {
    "id": "sikgaek-baekban-trip_restaurant_145",
    "name": "서울 부산횟집",
    "address": "서울 종로구 돈화문로4길 38 (장사동 85)",
    "lat": 37.5700222,
    "lng": 126.9944023
  },
  {
    "id": "sikgaek-baekban-trip_restaurant_119",
    "name": "서울 부흥동태",
    "address": "서울 영등포구 국제금융로8길 34 (여의도동 36-4)",
    "lat": 37.5202377,
    "lng": 126.9272493
  },
  {
    "id": "sikgaek-baekban-trip_restaurant_013",
    "name": "서울 사랑방칼국수",
    "address": "서울 중구 퇴계로27길 46 (충무로3가 23-1)",
    "lat": 37.5632775,
    "lng": 126.99135
  },
  {
    "id": "sikgaek-baekban-trip_restaurant_469",
    "name": "서울 산동교자 (명동)",
    "address": "서울 중구 명동2길 26 (명동2가 105)",
    "lat": 37.562291,
    "lng": 126.9824573
  },
  {
    "id": "sikgaek-baekban-trip_restaurant_438",
    "name": "서울 산동만두 (마포)",
    "address": "서울 마포구 도화길 22-10 (도화동 327-1)",
    "lat": 37.5400235,
    "lng": 126.9485036
  },
  {
    "id": "sikgaek-baekban-trip_restaurant_551",
    "name": "서울 산들애건강밥상",
    "address": "서울 은평구 대서문길 43-16 (진관동 278-30)",
    "lat": 37.6561346,
    "lng": 126.949261
  },
  {
    "id": "sikgaek-baekban-trip_restaurant_426",
    "name": "서울 산정",
    "address": "서울 중구 동호로 288 (장충동2가 186-38)",
    "lat": 37.5602191,
    "lng": 127.0031422
  },
  {
    "id": "sikgaek-baekban-trip_restaurant_597",
    "name": "서울 삼성원조양곱창",
    "address": "서울 강남구 학동로101길 7 (청담동 133-6)",
    "lat": 37.5209207,
    "lng": 127.0576487
  },
  {
    "id": "sikgaek-baekban-trip_restaurant_357",
    "name": "서울 삼지",
    "address": "서울 종로구 북촌로2길 5-7 (재동 84-28)",
    "lat": 37.5782908,
    "lng": 126.9860086
  },
  {
    "id": "sikgaek-baekban-trip_restaurant_533",
    "name": "서울 새집",
    "address": "서울 종로구 종로26길 14-1 (장사동 126)",
    "lat": 37.5696825,
    "lng": 126.9948271
  },
  {
    "id": "sikgaek-baekban-trip_restaurant_157",
    "name": "서울 새천년호프",
    "address": "서울 성북구 성북로 62-1 (성북동 161-7)",
    "lat": 37.5931982,
    "lng": 127.0020774
  },
  {
    "id": "sikgaek-baekban-trip_restaurant_120",
    "name": "서울 서궁",
    "address": "서울 영등포구 국제금융로 86 (여의도동 43-4)",
    "lat": 37.5202061,
    "lng": 126.9317999
  },
  {
    "id": "sikgaek-baekban-trip_restaurant_042",
    "name": "서울 서대문 원조 통술집(현재 폐업)",
    "address": "서울 서대문구 통일로 107-4 (미근동 171)",
    "lat": 37.5646976,
    "lng": 126.9672932
  },
  {
    "id": "sikgaek-baekban-trip_restaurant_307",
    "name": "서울 서여사네",
    "address": "서울 영등포구 도림로129길 2 (문래동2가 14-60)",
    "lat": 37.5138443,
    "lng": 126.8952943
  },
  {
    "id": "sikgaek-baekban-trip_restaurant_222",
    "name": "서울 서촌통영",
    "address": "서울 종로구 필운대로 47 (누하동 8-1)",
    "lat": 37.5803284,
    "lng": 126.9685078
  },
  {
    "id": "sikgaek-baekban-trip_restaurant_374",
    "name": "서울 설눈",
    "address": "서울 서초구 서초대로46길 20-7 (서초동 1551-9)",
    "lat": 37.4912451,
    "lng": 127.0097877
  },
  {
    "id": "sikgaek-baekban-trip_restaurant_585",
    "name": "서울 섬집",
    "address": "서울 용산구 한강대로14가길 3 (한강로3가 65-450)",
    "lat": 37.5244073,
    "lng": 126.965392
  },
  {
    "id": "sikgaek-baekban-trip_restaurant_017",
    "name": "서울 성원식품",
    "address": "서울 중구 을지로20길 36 (인현동2가 92-10)",
    "lat": 37.5648374,
    "lng": 126.9953883
  },
  {
    "id": "sikgaek-baekban-trip_restaurant_121",
    "name": "서울 솔",
    "address": "서울 영등포구 국제금융로8길 27-9 (여의도동 45-20)",
    "lat": 37.5196767,
    "lng": 126.928942
  },
  {
    "id": "sikgaek-baekban-trip_restaurant_156",
    "name": "서울 수연산방",
    "address": "서울 성북구 성북로26길 8 (성북동 248)",
    "lat": 37.5950563,
    "lng": 126.9948533
  },
  {
    "id": "sikgaek-baekban-trip_restaurant_143",
    "name": "서울 승우네식당",
    "address": "서울 종로구 종로 190-4 (종로4가 143)",
    "lat": 37.5704887,
    "lng": 126.9988221
  },
  {
    "id": "sikgaek-baekban-trip_restaurant_079",
    "name": "서울 시골순대",
    "address": "서울 마포구 월드컵북로1길 50 (서교동 375-5)",
    "lat": 37.5540787,
    "lng": 126.9188795
  },
  {
    "id": "sikgaek-baekban-trip_restaurant_246",
    "name": "서울 시장회집",
    "address": "서울 용산구 소월로20길 38 (용산동2가 1-76)",
    "lat": 37.5449168,
    "lng": 126.9851637
  },
  {
    "id": "sikgaek-baekban-trip_restaurant_653",
    "name": "서울 신명먹거리",
    "address": "서울 성동구 왕십리로5길 19 (성수동1가 685-201)",
    "lat": 37.5477527,
    "lng": 127.043746
  },
  {
    "id": "sikgaek-baekban-trip_restaurant_439",
    "name": "서울 신촌즉석생우동",
    "address": "서울 마포구 대흥로 38 (대흥동 801-13)",
    "lat": 37.5441228,
    "lng": 126.9387266
  },
  {
    "id": "sikgaek-baekban-trip_restaurant_089",
    "name": "서울 아성빈대떡",
    "address": "서울 용산구 효창원로48길 3 (용문동 8-112)",
    "lat": 37.5376791,
    "lng": 126.9606165
  },
  {
    "id": "sikgaek-baekban-trip_restaurant_197",
    "name": "서울 압구정3번출구닭꼬치 (푸드트럭)",
    "address": "서울 강남구 논현로 848 (신사동 603-2)",
    "lat": 37.5245705,
    "lng": 127.0288588
  },
  {
    "id": "sikgaek-baekban-trip_restaurant_062",
    "name": "서울 약수동춘천막국수",
    "address": "서울 중구 다산로10길 6 (신당동 368-86)",
    "lat": 37.5534131,
    "lng": 127.0103307
  },
  {
    "id": "sikgaek-baekban-trip_restaurant_427",
    "name": "서울 양푼이동태탕",
    "address": "서울 용산구 후암로 18 (후암동 244-72)",
    "lat": 37.5475443,
    "lng": 126.9782071
  },
  {
    "id": "sikgaek-baekban-trip_restaurant_598",
    "name": "서울 어머니대성집",
    "address": "서울 동대문구 왕산로11길 4 (용두동 232-26)",
    "lat": 37.5774796,
    "lng": 127.0285889
  },
  {
    "id": "sikgaek-baekban-trip_restaurant_211",
    "name": "서울 어울림 (여수집)",
    "address": "서울 광진구 광장로1나길 10 (광장동 393-21)",
    "lat": 37.5484841,
    "lng": 127.102034
  },
  {
    "id": "sikgaek-baekban-trip_restaurant_018",
    "name": "서울 에빈의커피이야기",
    "address": "서울 중구 퇴계로42길 35 (필동2가 70-5)",
    "lat": 37.5601825,
    "lng": 126.9965111
  },
  {
    "id": "sikgaek-baekban-trip_restaurant_040",
    "name": "서울 연희동 야식포차",
    "address": "서울 서대문구 성산로 337 (연희동 192-40)",
    "lat": 37.5659709,
    "lng": 126.9278349
  },
  {
    "id": "sikgaek-baekban-trip_restaurant_039",
    "name": "서울 연희미식",
    "address": "서울 서대문구 연희맛로 22 (연희동 188-69)",
    "lat": 37.566944,
    "lng": 126.9301681
  },
  {
    "id": "sikgaek-baekban-trip_restaurant_587",
    "name": "서울 영덕식당",
    "address": "서울 용산구 한강대로62나길 14 (용산동3가 1-68)",
    "lat": 37.5343328,
    "lng": 126.9744949
  },
  {
    "id": "sikgaek-baekban-trip_restaurant_192",
    "name": "서울 영동설렁탕",
    "address": "서울 서초구 강남대로101안길 24 (잠원동 10-53)",
    "lat": 37.5161592,
    "lng": 127.017388
  },
  {
    "id": "sikgaek-baekban-trip_restaurant_124",
    "name": "서울 영원식당",
    "address": "서울 영등포구 여의나루로 117 (여의도동 21-3)",
    "lat": 37.5262335,
    "lng": 126.9310618
  },
  {
    "id": "sikgaek-baekban-trip_restaurant_554",
    "name": "서울 오두리두부",
    "address": "서울 은평구 불광로18길 10-2 (불광동 189-4)",
    "lat": 37.6221117,
    "lng": 126.9323619
  },
  {
    "id": "sikgaek-baekban-trip_restaurant_530",
    "name": "서울 오라이등심",
    "address": "서울 종로구 종로32길 23-5 (종로5가 395-10)",
    "lat": 37.5701834,
    "lng": 127.0014102
  },
  {
    "id": "sikgaek-baekban-trip_restaurant_553",
    "name": "서울 와우 양철통소금구이",
    "address": "서울 은평구 연서로34길 23 (불광동 141-2)",
    "lat": 37.6214224,
    "lng": 126.9288273
  },
  {
    "id": "sikgaek-baekban-trip_restaurant_470",
    "name": "서울 왕성식당",
    "address": "서울 중구 남대문시장길 18-2 (남창동 34-50)",
    "lat": 37.559975,
    "lng": 126.9769788
  },
  {
    "id": "sikgaek-baekban-trip_restaurant_654",
    "name": "서울 왕십리정부네곱창",
    "address": "서울 성동구 고산자로 287 (홍익동 128-3)",
    "lat": 37.5653292,
    "lng": 127.0361425
  },
  {
    "id": "sikgaek-baekban-trip_restaurant_155",
    "name": "서울 욕쟁이할머니집 신신식당",
    "address": "서울 성북구 보문로30라길 3 (동선동2가 77)",
    "lat": 37.5899876,
    "lng": 127.0195913
  },
  {
    "id": "sikgaek-baekban-trip_restaurant_467",
    "name": "서울 용금옥",
    "address": "서울 중구 다동길 24-2 (다동 165-1)",
    "lat": 37.5676711,
    "lng": 126.9805106
  },
  {
    "id": "sikgaek-baekban-trip_restaurant_212",
    "name": "서울 용문집 (용문2호집)",
    "address": "서울 광진구 뚝섬로30길 44 (자양동 48-38)",
    "lat": 37.5343578,
    "lng": 127.0672857
  },
  {
    "id": "sikgaek-baekban-trip_restaurant_586",
    "name": "서울 용산양다리 (딩호양육관)",
    "address": "서울 용산구 원효로41길 15 (원효로3가 37-2)",
    "lat": 37.5345394,
    "lng": 126.958316
  },
  {
    "id": "sikgaek-baekban-trip_restaurant_103",
    "name": "서울 우남식당(현재 폐업)",
    "address": "서울 중구 을지로42길 28 (광희동1가 96)",
    "lat": 37.5650437,
    "lng": 127.0055103
  },
  {
    "id": "sikgaek-baekban-trip_restaurant_210",
    "name": "서울 우성식당 (우성기사식당)",
    "address": "서울 광진구 자양번영로 60-1 (자양동 611-2)",
    "lat": 37.5348685,
    "lng": 127.0764337
  },
  {
    "id": "sikgaek-baekban-trip_restaurant_167",
    "name": "서울 우화식당",
    "address": "서울 중구 충무로11길 18-4 (입정동 250)",
    "lat": 37.5674998,
    "lng": 126.991495
  },
  {
    "id": "sikgaek-baekban-trip_restaurant_088",
    "name": "서울 원대구탕",
    "address": "서울 용산구 한강대로62가길 8 (한강로1가 142-4)",
    "lat": 37.534678,
    "lng": 126.9742209
  },
  {
    "id": "sikgaek-baekban-trip_restaurant_279",
    "name": "서울 원조감자탕",
    "address": "서울 송파구 오금로11길 30-5 (방이동 58-20)",
    "lat": 37.515017,
    "lng": 127.1107682
  },
  {
    "id": "sikgaek-baekban-trip_restaurant_579",
    "name": "서울 원조닭갈비",
    "address": "서울 노원구 한글비석로36길 65 (상계동 140-138)",
    "lat": 37.6641743,
    "lng": 127.0725813
  },
  {
    "id": "sikgaek-baekban-trip_restaurant_489",
    "name": "서울 유림면",
    "address": "서울 중구 서소문로 139-1 (서소문동 16)",
    "lat": 37.5642444,
    "lng": 126.9760984
  },
  {
    "id": "sikgaek-baekban-trip_restaurant_144",
    "name": "서울 유진식당",
    "address": "서울 종로구 종로17길 40 (낙원동 221)",
    "lat": 37.5720483,
    "lng": 126.9883503
  },
  {
    "id": "sikgaek-baekban-trip_restaurant_065",
    "name": "서울 은성보쌈",
    "address": "서울 성동구 독서당로 297-6 (금호동3가 375)",
    "lat": 37.5484494,
    "lng": 127.0222878
  },
  {
    "id": "sikgaek-baekban-trip_restaurant_306",
    "name": "서울 은진포차",
    "address": "서울 영등포구 도림로133길 20 (문래동2가 39-1)",
    "lat": 37.5127903,
    "lng": 126.8937019
  },
  {
    "id": "sikgaek-baekban-trip_restaurant_592",
    "name": "서울 이문설렁탕",
    "address": "서울 종로구 우정국로 38-13 (견지동 88)",
    "lat": 37.5727716,
    "lng": 126.9838991
  },
  {
    "id": "sikgaek-baekban-trip_restaurant_490",
    "name": "서울 이북만두",
    "address": "서울 중구 무교로 17-13 (무교동 27)",
    "lat": 37.5672529,
    "lng": 126.9785285
  },
  {
    "id": "sikgaek-baekban-trip_restaurant_599",
    "name": "서울 이식당",
    "address": "서울 종로구 평창문화로 94 (평창동 152-2)",
    "lat": 37.6069502,
    "lng": 126.9714928
  },
  {
    "id": "sikgaek-baekban-trip_restaurant_242",
    "name": "서울 이태원 대흥정육식당",
    "address": "서울 용산구 보광로60길 15 (이태원동 127-31)",
    "lat": 37.5340917,
    "lng": 126.9950271
  },
  {
    "id": "sikgaek-baekban-trip_restaurant_244",
    "name": "서울 이태원숯불바베큐치킨",
    "address": "서울 용산구 녹사평대로 224-1 (이태원동 568)",
    "lat": 37.5377453,
    "lng": 126.9869528
  },
  {
    "id": "sikgaek-baekban-trip_restaurant_278",
    "name": "서울 일등바우",
    "address": "서울 송파구 송이로20길 20 (가락동 83)",
    "lat": 37.4955846,
    "lng": 127.1194236
  },
  {
    "id": "sikgaek-baekban-trip_restaurant_082",
    "name": "서울 일등식당",
    "address": "서울 마포구 방울내로 82 (망원동 476-1)",
    "lat": 37.5605687,
    "lng": 126.9043386
  },
  {
    "id": "sikgaek-baekban-trip_restaurant_425",
    "name": "서울 일미장어",
    "address": "서울 용산구 후암로57길 35-15 (동자동 35-44)",
    "lat": 37.5521476,
    "lng": 126.9744219
  },
  {
    "id": "sikgaek-baekban-trip_restaurant_286",
    "name": "서울 일출옥",
    "address": "서울 영등포구 국회대로50길 20 (영등포동7가 208)",
    "lat": 37.5236015,
    "lng": 126.9056744
  },
  {
    "id": "sikgaek-baekban-trip_restaurant_011",
    "name": "서울 잊지마식당",
    "address": "서울 중구 퇴계로41길 47 (인현동2가 192-17)",
    "lat": 37.5639365,
    "lng": 126.995437
  },
  {
    "id": "sikgaek-baekban-trip_restaurant_468",
    "name": "서울 자하손만두",
    "address": "서울 종로구 백석동길 12 (부암동 245-2)",
    "lat": 37.5931825,
    "lng": 126.9660832
  },
  {
    "id": "sikgaek-baekban-trip_restaurant_123",
    "name": "서울 장미의집",
    "address": "서울 영등포구 국제금융로7길 32 (여의도동 40)",
    "lat": 37.5234717,
    "lng": 126.9342005
  },
  {
    "id": "sikgaek-baekban-trip_restaurant_277",
    "name": "서울 장수식당",
    "address": "서울 송파구 삼전로 95 태성빌딩 (잠실동 252)",
    "lat": 37.5070486,
    "lng": 127.0899231
  },
  {
    "id": "sikgaek-baekban-trip_restaurant_373",
    "name": "서울 장수식당",
    "address": "서울 서초구 서래로 50 (반포동 93-7)",
    "lat": 37.4995625,
    "lng": 126.9984713
  },
  {
    "id": "sikgaek-baekban-trip_restaurant_159",
    "name": "서울 전통만두국 이상조",
    "address": "서울 성북구 고려대로8길 67 (안암동3가 99)",
    "lat": 37.5830366,
    "lng": 127.022299
  },
  {
    "id": "sikgaek-baekban-trip_restaurant_471",
    "name": "서울 조박사등갈비",
    "address": "서울 중구 퇴계로16길 8 (회현동3가 2-6)",
    "lat": 37.5603963,
    "lng": 126.9844745
  },
  {
    "id": "sikgaek-baekban-trip_restaurant_165",
    "name": "서울 주유소식당",
    "address": "서울 중구 창경궁로5길 11 (을지로4가 59)",
    "lat": 37.567113,
    "lng": 126.9973555
  },
  {
    "id": "sikgaek-baekban-trip_restaurant_080",
    "name": "서울 진가식탁 (복춘정)",
    "address": "서울 마포구 월드컵로21길 18 (망원동 57-498)",
    "lat": 37.5568366,
    "lng": 126.9080342
  },
  {
    "id": "sikgaek-baekban-trip_restaurant_016",
    "name": "서울 진미네",
    "address": "서울 중구 마른내로6길 34 (인현동2가 189-26)",
    "lat": 37.5627235,
    "lng": 126.9951239
  },
  {
    "id": "sikgaek-baekban-trip_restaurant_532",
    "name": "서울 진옥화할매원조닭한마리",
    "address": "서울 종로구 종로40가길 18 (종로5가 265-22)",
    "lat": 37.5703809,
    "lng": 127.0057131
  },
  {
    "id": "sikgaek-baekban-trip_restaurant_085",
    "name": "서울 진주식당",
    "address": "서울 용산구 한강대로62나길 2 (한강로1가 196-2)",
    "lat": 37.5341477,
    "lng": 126.9738767
  },
  {
    "id": "sikgaek-baekban-trip_restaurant_472",
    "name": "서울 진주집",
    "address": "서울 중구 남대문시장길 22-2 (남창동 34-31)",
    "lat": 37.560009,
    "lng": 126.9770936
  },
  {
    "id": "sikgaek-baekban-trip_restaurant_147",
    "name": "서울 참새집",
    "address": "서울 종로구 삼봉로 74 (청진동 41-2)",
    "lat": 37.5721036,
    "lng": 126.9812963
  },
  {
    "id": "sikgaek-baekban-trip_restaurant_224",
    "name": "서울 창성갈비",
    "address": "서울 종로구 자하문로 40-1 (창성동 136)",
    "lat": 37.5796473,
    "lng": 126.9715995
  },
  {
    "id": "sikgaek-baekban-trip_restaurant_084",
    "name": "서울 창성옥",
    "address": "서울 용산구 새창로 124-10 (용문동 25-16)",
    "lat": 37.5364081,
    "lng": 126.9604024
  },
  {
    "id": "sikgaek-baekban-trip_restaurant_102",
    "name": "서울 천일삼계탕",
    "address": "서울 중구 장충단로13길 43 (을지로6가 18-187)",
    "lat": 37.5680983,
    "lng": 127.0064646
  },
  {
    "id": "sikgaek-baekban-trip_restaurant_437",
    "name": "서울 천지식당",
    "address": "서울 마포구 마포대로4가길 54 (마포동 302)",
    "lat": 37.5372654,
    "lng": 126.9446673
  },
  {
    "id": "sikgaek-baekban-trip_restaurant_041",
    "name": "서울 철길떡볶이",
    "address": "서울 서대문구 충정로 35-6 (충정로3가 143-2)",
    "lat": 37.5623163,
    "lng": 126.9636072
  },
  {
    "id": "sikgaek-baekban-trip_restaurant_014",
    "name": "서울 충무로청국장",
    "address": "서울 중구 퇴계로41길 7 (충무로4가 127-18)",
    "lat": 37.5621089,
    "lng": 126.9956782
  },
  {
    "id": "sikgaek-baekban-trip_restaurant_488",
    "name": "서울 충무집",
    "address": "서울 중구 을지로3길 30-14 (다동 123-1)",
    "lat": 37.56736,
    "lng": 126.981983
  },
  {
    "id": "sikgaek-baekban-trip_restaurant_424",
    "name": "서울 충무칼국수",
    "address": "서울 용산구 한강대로104길 38 (동자동 23-29)",
    "lat": 37.5502055,
    "lng": 126.9743943
  },
  {
    "id": "sikgaek-baekban-trip_restaurant_636",
    "name": "서울 충무칼국수",
    "address": "서울 종로구 창경궁로 123-5 (인의동 86)",
    "lat": 37.573538,
    "lng": 126.9971407
  },
  {
    "id": "sikgaek-baekban-trip_restaurant_578",
    "name": "서울 태능배밭갈비",
    "address": "서울 중랑구 동일로143길 30 (묵동 249-107)",
    "lat": 37.6052488,
    "lng": 127.0768549
  },
  {
    "id": "sikgaek-baekban-trip_restaurant_061",
    "name": "서울 털보네꼼장어",
    "address": "서울 용산구 대사관로 63 (한남동 657-106)",
    "lat": 37.5334811,
    "lng": 127.0052868
  },
  {
    "id": "sikgaek-baekban-trip_restaurant_087",
    "name": "서울 털보집",
    "address": "서울 용산구 한강대로88길 11 (남영동 15-2)",
    "lat": 37.5445557,
    "lng": 126.9729726
  },
  {
    "id": "sikgaek-baekban-trip_restaurant_371",
    "name": "서울 토박이",
    "address": "서울 서초구 반포대로39길 38 (반포동 549-16)",
    "lat": 37.4984745,
    "lng": 127.0020002
  },
  {
    "id": "sikgaek-baekban-trip_restaurant_015",
    "name": "서울 통나무집",
    "address": "서울 중구 마른내로6길 16 (인현동2가 211)",
    "lat": 37.5634973,
    "lng": 126.9951486
  },
  {
    "id": "sikgaek-baekban-trip_restaurant_531",
    "name": "서울 통큰누이네 육회빈대떡",
    "address": "서울 종로구 동호로 403-24 (종로5가 138-25)",
    "lat": 37.5704471,
    "lng": 127.0011769
  },
  {
    "id": "sikgaek-baekban-trip_restaurant_146",
    "name": "서울 평원숯불갈비",
    "address": "서울 종로구 종로39길 29 (효제동 174-6)",
    "lat": 37.5721588,
    "lng": 127.0052777
  },
  {
    "id": "sikgaek-baekban-trip_restaurant_083",
    "name": "서울 퓨전선술집",
    "address": "서울 마포구 월드컵로1길 7 (합정동 383-9)",
    "lat": 37.5494613,
    "lng": 126.9124989
  },
  {
    "id": "sikgaek-baekban-trip_restaurant_019",
    "name": "서울 필동과자점(현재 폐업)",
    "address": "서울 중구 서애로 14-1 (필동3가 17-2)",
    "lat": 37.5611149,
    "lng": 126.9978625
  },
  {
    "id": "sikgaek-baekban-trip_restaurant_012",
    "name": "서울 학다방",
    "address": "서울 중구 퇴계로37길 19 (필동1가 47-2)",
    "lat": 37.5620918,
    "lng": 126.993527
  },
  {
    "id": "sikgaek-baekban-trip_restaurant_593",
    "name": "서울 한우다이닝 울릉",
    "address": "서울 서초구 서운로 135 (서초동 1322-11)",
    "lat": 37.4955321,
    "lng": 127.0245822
  },
  {
    "id": "sikgaek-baekban-trip_restaurant_243",
    "name": "서울 할매보리밥집",
    "address": "서울 용산구 보광로14길 12-4 (보광동 10-9)",
    "lat": 37.5271894,
    "lng": 127.0007393
  },
  {
    "id": "sikgaek-baekban-trip_restaurant_213",
    "name": "서울 해남닭집",
    "address": "서울 광진구 능동로13길 46 (화양동 12-40)",
    "lat": 37.5440035,
    "lng": 127.0700349
  },
  {
    "id": "sikgaek-baekban-trip_restaurant_195",
    "name": "서울 해남집",
    "address": "서울 강남구 강남대로160길 16 (신사동 508-3)",
    "lat": 37.5193311,
    "lng": 127.02019
  },
  {
    "id": "sikgaek-baekban-trip_restaurant_220",
    "name": "서울 해장국사람들",
    "address": "서울 종로구 자하문로 50-1 (창성동 98-6)",
    "lat": 37.5805566,
    "lng": 126.9714513
  },
  {
    "id": "sikgaek-baekban-trip_restaurant_360",
    "name": "서울 향가",
    "address": "서울 종로구 계동길 19-6 (재동 84-1)",
    "lat": 37.5782217,
    "lng": 126.9862338
  },
  {
    "id": "sikgaek-baekban-trip_restaurant_038",
    "name": "서울 홍가네면옥(현재 폐업)",
    "address": "서울 서대문구 영천시장길 31 (영천동 301)",
    "lat": 37.5708338,
    "lng": 126.9612328
  },
  {
    "id": "sikgaek-baekban-trip_restaurant_358",
    "name": "서울 황생가칼국수",
    "address": "서울 종로구 북촌로5길 78 (소격동 84)",
    "lat": 37.5801318,
    "lng": 126.9806901
  },
  {
    "id": "sikgaek-baekban-trip_restaurant_694",
    "name": "성남 고미꽃시래",
    "address": "경기 성남시 분당구 불정로 422 (서현동 335-2)",
    "lat": 37.376667,
    "lng": 127.1404097
  },
  {
    "id": "sikgaek-baekban-trip_restaurant_613",
    "name": "성남 남해소반",
    "address": "경기 성남시 분당구 내정로165번길 38 (수내동 32)",
    "lat": 37.3767071,
    "lng": 127.1162822
  },
  {
    "id": "sikgaek-baekban-trip_restaurant_612",
    "name": "성남 장터식당",
    "address": "경기 성남시 중원구 둔촌대로83번길 2 (성남동 4185)",
    "lat": 37.4304156,
    "lng": 127.1284877
  },
  {
    "id": "sikgaek-baekban-trip_restaurant_615",
    "name": "성남 진선보쌈",
    "address": "경기 성남시 수정구 산성대로295번길 9-1 (신흥동 2562-1)",
    "lat": 37.4425674,
    "lng": 127.1489921
  },
  {
    "id": "sikgaek-baekban-trip_restaurant_696",
    "name": "성남 참향",
    "address": "경기 성남시 분당구 새마을로 181 (율동 115-1)",
    "lat": 37.3840448,
    "lng": 127.1506489
  },
  {
    "id": "sikgaek-baekban-trip_restaurant_614",
    "name": "성남 행하령수제비",
    "address": "경기 성남시 분당구 성남대로144번길 14 (구미동 35-9)",
    "lat": 37.3485685,
    "lng": 127.1106181
  },
  {
    "id": "sikgaek-baekban-trip_restaurant_406",
    "name": "속초 88생선구이",
    "address": "강원 속초시 중앙부두길 71 (중앙동 468-55)",
    "lat": 38.2037471,
    "lng": 128.5919136
  },
  {
    "id": "sikgaek-baekban-trip_restaurant_408",
    "name": "속초 감자바우",
    "address": "강원 속초시 청초호반로 239 (교동 482-322)",
    "lat": 38.200133,
    "lng": 128.5835987
  },
  {
    "id": "sikgaek-baekban-trip_restaurant_404",
    "name": "속초 경진호",
    "address": "강원 속초시 동해대로 3666 (대포동 178-75)",
    "lat": 38.1633548,
    "lng": 128.6090031
  },
  {
    "id": "sikgaek-baekban-trip_restaurant_405",
    "name": "속초 곤드레밥집",
    "address": "강원 속초시 법대로 18-1 (동명동 289-3)",
    "lat": 38.2124251,
    "lng": 128.5931755
  },
  {
    "id": "sikgaek-baekban-trip_restaurant_407",
    "name": "속초 화진호 이선장네",
    "address": "강원 속초시 먹거리4길 18-1 (교동 964-12)",
    "lat": 38.1953987,
    "lng": 128.5732642
  },
  {
    "id": "sikgaek-baekban-trip_restaurant_113",
    "name": "수원 골목집",
    "address": "경기 수원시 팔달구 화서문로 53-1 (장안동 143-3)",
    "lat": 37.2855812,
    "lng": 127.013917
  },
  {
    "id": "sikgaek-baekban-trip_restaurant_117",
    "name": "수원 나연식당",
    "address": "경기 수원시 권선구 세권로 185 (권선동 1051)",
    "lat": 37.2560685,
    "lng": 127.0247128
  },
  {
    "id": "sikgaek-baekban-trip_restaurant_115",
    "name": "수원 남보원불고기",
    "address": "경기 수원시 장안구 정조로922번길 20 (영화동 279-5)",
    "lat": 37.2904417,
    "lng": 127.0144377
  },
  {
    "id": "sikgaek-baekban-trip_restaurant_118",
    "name": "수원 명성돼지갈비",
    "address": "경기 수원시 장안구 팔달로271번길 16-16 (영화동 281-10)",
    "lat": 37.289874,
    "lng": 127.014857
  },
  {
    "id": "sikgaek-baekban-trip_restaurant_627",
    "name": "수원 수구레엄마손백반",
    "address": "경기 수원시 팔달구 팔달문로75번길 84 (지동 476-27)",
    "lat": 37.2830848,
    "lng": 127.0274059
  },
  {
    "id": "sikgaek-baekban-trip_restaurant_114",
    "name": "수원 연밀",
    "address": "경기 수원시 팔달구 창룡대로8번길 10 (팔달로1가 5-4)",
    "lat": 37.2813525,
    "lng": 127.017398
  },
  {
    "id": "sikgaek-baekban-trip_restaurant_116",
    "name": "수원 열구자",
    "address": "경기 수원시 권선구 금호로 104-12 (호매실동 22-5)",
    "lat": 37.2721078,
    "lng": 126.9629
  },
  {
    "id": "sikgaek-baekban-trip_restaurant_630",
    "name": "수원 왕대포",
    "address": "경기 수원시 팔달구 정조로886번길 26 (북수동 25-12)",
    "lat": 37.287155,
    "lng": 127.0167215
  },
  {
    "id": "sikgaek-baekban-trip_restaurant_629",
    "name": "수원 팔미옥",
    "address": "경기 수원시 팔달구 효원로 3-1 2층 (매산로3가 5-5)",
    "lat": 37.2731612,
    "lng": 127.009904
  },
  {
    "id": "sikgaek-baekban-trip_restaurant_628",
    "name": "수원 한봉석할머니순두부",
    "address": "경기 수원시 팔달구 행궁로62번길 24-42 (팔달로3가 103-14)",
    "lat": 37.2771177,
    "lng": 127.0148631
  },
  {
    "id": "sikgaek-baekban-trip_restaurant_341",
    "name": "순창 민속집",
    "address": "전북 순창군 순창읍 순창8길 5-1 (남계리 505-1)",
    "lat": 35.3740435,
    "lng": 127.1432991
  },
  {
    "id": "sikgaek-baekban-trip_restaurant_344",
    "name": "순창 백야촌",
    "address": "전북 순창군 팔덕면 담순로 889-13 (덕천리 245-23)",
    "lat": 35.3652009,
    "lng": 127.097525
  },
  {
    "id": "sikgaek-baekban-trip_restaurant_343",
    "name": "순창 유등숯불돼지갈비",
    "address": "전북 순창군 순창읍 유등로 59 (남계리 908-7)",
    "lat": 35.3701788,
    "lng": 127.1552589
  },
  {
    "id": "sikgaek-baekban-trip_restaurant_340",
    "name": "순창 장본가식품",
    "address": "전북 순창군 순창읍 민속마을길 16 (백산리 265-15)",
    "lat": 35.3681334,
    "lng": 127.1097985
  },
  {
    "id": "sikgaek-baekban-trip_restaurant_342",
    "name": "순창 칠보식당",
    "address": "전북 순창군 순창읍 순창7길 30 (순화리 260)",
    "lat": 35.374591,
    "lng": 127.1396999
  },
  {
    "id": "sikgaek-baekban-trip_restaurant_345",
    "name": "순창 함양식당",
    "address": "전북 순창군 구림면 구림로 472 (운남리 264-16)",
    "lat": 35.4520796,
    "lng": 127.1022761
  },
  {
    "id": "sikgaek-baekban-trip_restaurant_690",
    "name": "순천 61호 명태전",
    "address": "전남 순천시 장평로 60 (풍덕동 1264)",
    "lat": 34.9451468,
    "lng": 127.49609
  },
  {
    "id": "sikgaek-baekban-trip_restaurant_091",
    "name": "순천 갈마골아구찜",
    "address": "전남 순천시 장명3길 9 (장천동 228-13)",
    "lat": 34.9523631,
    "lng": 127.4875604
  },
  {
    "id": "sikgaek-baekban-trip_restaurant_689",
    "name": "순천 거시기식당",
    "address": "전남 순천시 저전길 15 (저전동 206-33)",
    "lat": 34.9500927,
    "lng": 127.4839062
  },
  {
    "id": "sikgaek-baekban-trip_restaurant_692",
    "name": "순천 대박집",
    "address": "전남 순천시 대석3길 10 (연향동 1473-8)",
    "lat": 34.946752,
    "lng": 127.5258197
  },
  {
    "id": "sikgaek-baekban-trip_restaurant_090",
    "name": "순천 대원식당",
    "address": "전남 순천시 장천2길 30-29 (장천동 35-11)",
    "lat": 34.9501174,
    "lng": 127.490181
  },
  {
    "id": "sikgaek-baekban-trip_restaurant_095",
    "name": "순천 뚝왕대포",
    "address": "전남 순천시 강변로 855-3 (매곡동 13-9)",
    "lat": 34.9616016,
    "lng": 127.4878504
  },
  {
    "id": "sikgaek-baekban-trip_restaurant_092",
    "name": "순천 민호네 전 전문점",
    "address": "전남 순천시 장평로 60 (풍덕동 1264)",
    "lat": 34.9451468,
    "lng": 127.49609
  },
  {
    "id": "sikgaek-baekban-trip_restaurant_691",
    "name": "순천 텃밭",
    "address": "전남 순천시 봉화2길 67 (조례동 1105)",
    "lat": 34.9585638,
    "lng": 127.5175379
  },
  {
    "id": "sikgaek-baekban-trip_restaurant_093",
    "name": "순천 풍미통닭",
    "address": "전남 순천시 성남뒷길 3 (장천동 19-16)",
    "lat": 34.9464358,
    "lng": 127.4909734
  },
  {
    "id": "sikgaek-baekban-trip_restaurant_094",
    "name": "순천 한우식당",
    "address": "전남 순천시 북문길 40 (동외동 168-1)",
    "lat": 34.958649,
    "lng": 127.4850485
  },
  {
    "id": "sikgaek-baekban-trip_restaurant_059",
    "name": "신안 나들목맛집",
    "address": "전남 신안군 임자면 진리길 2 (진리 265-26)",
    "lat": 35.0846767,
    "lng": 126.1116232
  },
  {
    "id": "sikgaek-baekban-trip_restaurant_060",
    "name": "신안 청해짱뚱어",
    "address": "전남 신안군 지도읍 지도증도로 10-1 (읍내리 353-26)",
    "lat": 35.0574838,
    "lng": 126.2047028
  },
  {
    "id": "sikgaek-baekban-trip_restaurant_058",
    "name": "신안 하나로식당",
    "address": "전남 신안군 암태면 장단고길 33-17 (단고리 50-3)",
    "lat": 34.8275832,
    "lng": 126.1116288
  },
  {
    "id": "sikgaek-baekban-trip_restaurant_162",
    "name": "안동 성전식당",
    "address": "경북 안동시 동흥1길 9 (운흥동 205-4)",
    "lat": 36.5641667,
    "lng": 128.7339671
  },
  {
    "id": "sikgaek-baekban-trip_restaurant_164",
    "name": "안동 수정식당",
    "address": "경북 안동시 중앙시장2길 26-1 (옥야동 305-10)",
    "lat": 36.5637413,
    "lng": 128.7232096
  },
  {
    "id": "sikgaek-baekban-trip_restaurant_161",
    "name": "안동 시골갈비식당",
    "address": "경북 안동시 음식의길 14 (운흥동 171-7)",
    "lat": 36.5637341,
    "lng": 128.7319789
  },
  {
    "id": "sikgaek-baekban-trip_restaurant_160",
    "name": "안동 옥동손국수",
    "address": "경북 안동시 강변마을1길 91 (당북동 434)",
    "lat": 36.5592288,
    "lng": 128.7197398
  },
  {
    "id": "sikgaek-baekban-trip_restaurant_163",
    "name": "안동 효자통닭",
    "address": "경북 안동시 당북길 54 (당북동 89-5)",
    "lat": 36.5660778,
    "lng": 128.7189014
  },
  {
    "id": "sikgaek-baekban-trip_restaurant_647",
    "name": "안산 김종우갈백집",
    "address": "경기 안산시 단원구 고잔2길 9 (고잔동 529-4)",
    "lat": 37.3180094,
    "lng": 126.8320397
  },
  {
    "id": "sikgaek-baekban-trip_restaurant_648",
    "name": "안산 진도식당",
    "address": "경기 안산시 단원구 광덕대로 187 (고잔동 706-3)",
    "lat": 37.3132703,
    "lng": 126.8293438
  },
  {
    "id": "sikgaek-baekban-trip_restaurant_645",
    "name": "안산 칸티푸르 레스토랑",
    "address": "경기 안산시 단원구 다문화2길 28 (원곡동 794)",
    "lat": 37.3302188,
    "lng": 126.7910566
  },
  {
    "id": "sikgaek-baekban-trip_restaurant_646",
    "name": "안산 팔곡가든",
    "address": "경기 안산시 상록구 소학2길 9 (팔곡동408-3)",
    "lat": 37.2962204,
    "lng": 126.8863229
  },
  {
    "id": "sikgaek-baekban-trip_restaurant_503",
    "name": "안성 강건너빼리",
    "address": "경기 안성시 금광면 가협1길 121-54 (금광리 417)",
    "lat": 36.9909694,
    "lng": 127.3363951
  },
  {
    "id": "sikgaek-baekban-trip_restaurant_505",
    "name": "안성 두꺼비스넥",
    "address": "경기 안성시 안성맞춤대로 1068 (대천동 72)",
    "lat": 37.0086351,
    "lng": 127.2699968
  },
  {
    "id": "sikgaek-baekban-trip_restaurant_506",
    "name": "안성 빠박이생고기",
    "address": "경기 안성시 중앙로399번길 42 (구포동 103)",
    "lat": 37.0090315,
    "lng": 127.2718666
  },
  {
    "id": "sikgaek-baekban-trip_restaurant_504",
    "name": "안성 한경식당",
    "address": "경기 안성시 중앙로372번길 21 (서인동 104)",
    "lat": 37.006788,
    "lng": 127.2679371
  },
  {
    "id": "sikgaek-baekban-trip_restaurant_607",
    "name": "안양 삼돌박이수라육간",
    "address": "경기 안양시 동안구 평촌대로223번길 31 (호계동 1047)",
    "lat": 37.3906408,
    "lng": 126.9539407
  },
  {
    "id": "sikgaek-baekban-trip_restaurant_606",
    "name": "안양 안양감자탕",
    "address": "경기 안양시 만안구 장내로 143 (안양동 674-269)",
    "lat": 37.3981451,
    "lng": 126.9233686
  },
  {
    "id": "sikgaek-baekban-trip_restaurant_604",
    "name": "안양 춘하추동",
    "address": "경기 안양시 만안구 장내로 119 (안양동 676-242)",
    "lat": 37.3970882,
    "lng": 126.9208637
  },
  {
    "id": "sikgaek-baekban-trip_restaurant_605",
    "name": "안양 호계분식",
    "address": "경기 안양시 동안구 엘에스로45번길 6 (호계동 707-3)",
    "lat": 37.3677025,
    "lng": 126.9544427
  },
  {
    "id": "sikgaek-baekban-trip_restaurant_510",
    "name": "양양 단양면옥",
    "address": "강원 양양군 양양읍 남문6길 3 (남문리 16-35)",
    "lat": 38.0755114,
    "lng": 128.6219217
  },
  {
    "id": "sikgaek-baekban-trip_restaurant_297",
    "name": "양주 노고산로뎀나무",
    "address": "경기 양주시 장흥면 유원지로 83 (삼상리 146-7)",
    "lat": 37.6986561,
    "lng": 126.9384452
  },
  {
    "id": "sikgaek-baekban-trip_restaurant_296",
    "name": "양주 동언집 (동언식당)",
    "address": "경기 양주시 덕정1길 15-3 (덕정동 350-63)",
    "lat": 37.8449742,
    "lng": 127.0625316
  },
  {
    "id": "sikgaek-baekban-trip_restaurant_294",
    "name": "양주 부일기사식당 (부일부대찌개)",
    "address": "경기 양주시 장흥면 호국로 557-2 (부곡리 540-35)",
    "lat": 37.7192821,
    "lng": 126.9756915
  },
  {
    "id": "sikgaek-baekban-trip_restaurant_298",
    "name": "양주 유명식당",
    "address": "경기 양주시 광적면 부흥로 31 (비암리 747-13)",
    "lat": 37.8053202,
    "lng": 126.9135317
  },
  {
    "id": "sikgaek-baekban-trip_restaurant_295",
    "name": "양주 평양면옥",
    "address": "경기 양주시 장흥면 호국로 515 (교현리 115-9)",
    "lat": 37.7170904,
    "lng": 126.9716023
  },
  {
    "id": "sikgaek-baekban-trip_restaurant_254",
    "name": "양평 순흥식당",
    "address": "경기 양평군 청운면 용두로139번길 16 (용두리 640-3)",
    "lat": 37.555417,
    "lng": 127.7092684
  },
  {
    "id": "sikgaek-baekban-trip_restaurant_258",
    "name": "양평 쌈지골",
    "address": "경기 양평군 옥천면 마유산로 855-6 (신복리 192-1)",
    "lat": 37.5560068,
    "lng": 127.4640362
  },
  {
    "id": "sikgaek-baekban-trip_restaurant_256",
    "name": "양평 용문원조능이버섯국밥",
    "address": "경기 양평군 용문면 용문역길 12 (다문리 737-34)",
    "lat": 37.4830815,
    "lng": 127.5936559
  },
  {
    "id": "sikgaek-baekban-trip_restaurant_255",
    "name": "양평 초가",
    "address": "경기 양평군 강하면 왕창로 34 (왕창리 659-3)",
    "lat": 37.4803903,
    "lng": 127.3896027
  },
  {
    "id": "sikgaek-baekban-trip_restaurant_259",
    "name": "양평 표미숙국수",
    "address": "경기 양평군 옥천면 백현길 4 (옥천리 141-1)",
    "lat": 37.528052,
    "lng": 127.4747023
  },
  {
    "id": "sikgaek-baekban-trip_restaurant_257",
    "name": "양평 회령손만두국",
    "address": "경기 양평군 용문면 용문로 827 (광탄리 161-7)",
    "lat": 37.5085473,
    "lng": 127.6325585
  },
  {
    "id": "sikgaek-baekban-trip_restaurant_475",
    "name": "여수 41번포차",
    "address": "전남 여수시 봉산남3길 17 (봉산동 266-15)",
    "lat": 34.7337122,
    "lng": 127.7214972
  },
  {
    "id": "sikgaek-baekban-trip_restaurant_178",
    "name": "여수 고래실",
    "address": "전남 여수시 여서동5길 8-1 (여서동 286-1)",
    "lat": 34.7513926,
    "lng": 127.7095306
  },
  {
    "id": "sikgaek-baekban-trip_restaurant_474",
    "name": "여수 나진국밥",
    "address": "전남 여수시 화양면 화양로 1391 (나진리 430-4)",
    "lat": 34.7069293,
    "lng": 127.6132258
  },
  {
    "id": "sikgaek-baekban-trip_restaurant_176",
    "name": "여수 남원식당",
    "address": "전남 여수시 관문2길 5 (관문동 589)",
    "lat": 34.7425814,
    "lng": 127.7411874
  },
  {
    "id": "sikgaek-baekban-trip_restaurant_177",
    "name": "여수 동서식당",
    "address": "전남 여수시 장군산길 71 (오림동 408-21)",
    "lat": 34.7563874,
    "lng": 127.7164224
  },
  {
    "id": "sikgaek-baekban-trip_restaurant_184",
    "name": "여수 미로횟집",
    "address": "전남 여수시 시청서3길 18 (학동 196-2)",
    "lat": 34.7576738,
    "lng": 127.6567225
  },
  {
    "id": "sikgaek-baekban-trip_restaurant_183",
    "name": "여수 복산식당",
    "address": "전남 여수시 소라면 하세동길 17-2 (덕양리 1268-29)",
    "lat": 34.7986632,
    "lng": 127.632414
  },
  {
    "id": "sikgaek-baekban-trip_restaurant_473",
    "name": "여수 봉정식당",
    "address": "전남 여수시 교동남1길 6-9 (교동 563)",
    "lat": 34.7396488,
    "lng": 127.7329934
  },
  {
    "id": "sikgaek-baekban-trip_restaurant_477",
    "name": "여수 산들네 전집 (서시장)",
    "address": "전남 여수시 서교4길 9-1 (서교동 280-104)",
    "lat": 34.7416091,
    "lng": 127.7289283
  },
  {
    "id": "sikgaek-baekban-trip_restaurant_179",
    "name": "여수 자봉식당",
    "address": "전남 여수시 충무로 19 (교동 599-1)",
    "lat": 34.7382751,
    "lng": 127.7311932
  },
  {
    "id": "sikgaek-baekban-trip_restaurant_181",
    "name": "여수 정다운식당",
    "address": "전남 여수시 봉산남8길 7 (봉산동 275-18)",
    "lat": 34.7318886,
    "lng": 127.7227346
  },
  {
    "id": "sikgaek-baekban-trip_restaurant_180",
    "name": "여수 조일식당",
    "address": "전남 여수시 여문문화2길 61 (문수동 189-3)",
    "lat": 34.7515755,
    "lng": 127.7009094
  },
  {
    "id": "sikgaek-baekban-trip_restaurant_476",
    "name": "여수 주부떡집 (서시장)",
    "address": "전남 여수시 서교4길 9 (서교동 280-76)",
    "lat": 34.741571,
    "lng": 127.7288973
  },
  {
    "id": "sikgaek-baekban-trip_restaurant_185",
    "name": "여수 추억꺼리",
    "address": "전남 여수시 시전6길 22 (신기동 73-6)",
    "lat": 34.760672,
    "lng": 127.6732958
  },
  {
    "id": "sikgaek-baekban-trip_restaurant_182",
    "name": "여수 해풍게장",
    "address": "전남 여수시 신기남4길 26 (신기동 64-8)",
    "lat": 34.7616292,
    "lng": 127.6703511
  },
  {
    "id": "sikgaek-baekban-trip_restaurant_661",
    "name": "여주 걸구쟁이네",
    "address": "경기 여주시 강천면 강문로 707 (간매리 496-5)",
    "lat": 37.2645787,
    "lng": 127.7188941
  },
  {
    "id": "sikgaek-baekban-trip_restaurant_663",
    "name": "여주 마당집추어탕",
    "address": "경기 여주시 우암로 23 (하동 289)",
    "lat": 37.2966509,
    "lng": 127.6333068
  },
  {
    "id": "sikgaek-baekban-trip_restaurant_662",
    "name": "여주 팔남매",
    "address": "경기 여주시 여흥로11번길 57 (하동 249-8)",
    "lat": 37.2980183,
    "lng": 127.632582
  },
  {
    "id": "sikgaek-baekban-trip_restaurant_664",
    "name": "여주 포뜰오리",
    "address": "경기 여주시 여주남로 300-16 (연라동 390-1)",
    "lat": 37.2651362,
    "lng": 127.6022731
  },
  {
    "id": "sikgaek-baekban-trip_restaurant_676",
    "name": "영광 백수식당",
    "address": "전남 영광군 백수읍 천마길 9 (천마리 608-1)",
    "lat": 35.2826938,
    "lng": 126.4205935
  },
  {
    "id": "sikgaek-baekban-trip_restaurant_678",
    "name": "영광 사거리식육식당",
    "address": "전남 영광군 홍농읍 홍농로 458 (상하리 174-4)",
    "lat": 35.395089,
    "lng": 126.4466859
  },
  {
    "id": "sikgaek-baekban-trip_restaurant_679",
    "name": "영광 장보고굴비",
    "address": "전남 영광군 법성면 굴비로1길 46 (진내리 482-64)",
    "lat": 35.3616989,
    "lng": 126.439112
  },
  {
    "id": "sikgaek-baekban-trip_restaurant_677",
    "name": "영광 중앙먹거리",
    "address": "전남 영광군 영광읍 물무로 106-2 (백학리 21)",
    "lat": 35.2764114,
    "lng": 126.5115885
  },
  {
    "id": "sikgaek-baekban-trip_restaurant_396",
    "name": "영덕 시장밥집",
    "address": "경북 영덕군 영덕읍 남석길 23-10 (남석리 26-50)",
    "lat": 36.4068113,
    "lng": 129.3699995
  },
  {
    "id": "sikgaek-baekban-trip_restaurant_397",
    "name": "영덕 영덕물가자미전문점",
    "address": "경북 영덕군 영덕읍 영덕대게로 939 (창포리 57-2)",
    "lat": 36.4197708,
    "lng": 129.4319647
  },
  {
    "id": "sikgaek-baekban-trip_restaurant_395",
    "name": "영덕 해변회식당",
    "address": "경북 영덕군 영해면 영덕대게로 2817 (대진리 412-1)",
    "lat": 36.5640413,
    "lng": 129.4287756
  },
  {
    "id": "sikgaek-baekban-trip_restaurant_443",
    "name": "영동 갑돌갈비",
    "address": "충북 영동군 영동읍 계산로2길 5-23 (계산리 668-8)",
    "lat": 36.1732891,
    "lng": 127.7802213
  },
  {
    "id": "sikgaek-baekban-trip_restaurant_441",
    "name": "영동 동정리보경가든",
    "address": "충북 영동군 영동읍 동정로2안길 9-1 (동정리 53-3)",
    "lat": 36.1749697,
    "lng": 127.7886787
  },
  {
    "id": "sikgaek-baekban-trip_restaurant_442",
    "name": "영동 선미식당",
    "address": "충북 영동군 학산면 서산로 39-1 (서산리 810-5)",
    "lat": 36.0966858,
    "lng": 127.6840952
  },
  {
    "id": "sikgaek-baekban-trip_restaurant_389",
    "name": "영암 구림떡방아",
    "address": "전남 영암군 군서면 도갑사로 6-7 (동구림리 48-13)",
    "lat": 34.7618462,
    "lng": 126.6330017
  },
  {
    "id": "sikgaek-baekban-trip_restaurant_390",
    "name": "영암 독천식당",
    "address": "전남 영암군 학산면 독천로 162-1 (독천리 184-12)",
    "lat": 34.7247596,
    "lng": 126.5670429
  },
  {
    "id": "sikgaek-baekban-trip_restaurant_388",
    "name": "영암 수궁한정식",
    "address": "전남 영암군 삼호읍 용당로 80-1 (삼포리 430-1)",
    "lat": 34.7513738,
    "lng": 126.4112502
  },
  {
    "id": "sikgaek-baekban-trip_restaurant_386",
    "name": "영암 청하식당",
    "address": "전남 영암군 학산면 독천로 170-1 (독천리 1237-11)",
    "lat": 34.725071,
    "lng": 126.5679887
  },
  {
    "id": "sikgaek-baekban-trip_restaurant_387",
    "name": "영암 텃밭가든",
    "address": "전남 영암군 덕진면 새터신정길 71 (덕진리 203-1)",
    "lat": 34.8192289,
    "lng": 126.6981545
  },
  {
    "id": "sikgaek-baekban-trip_restaurant_479",
    "name": "영월 노루목상회식당",
    "address": "강원 영월군 김삿갓면 김삿갓로 216-3 (와석리 926)",
    "lat": 37.0814405,
    "lng": 128.6019212
  },
  {
    "id": "sikgaek-baekban-trip_restaurant_478",
    "name": "영월 박가네",
    "address": "강원 영월군 영월읍 중앙로 149 (덕포리 574-245)",
    "lat": 37.1792267,
    "lng": 128.4774445
  },
  {
    "id": "sikgaek-baekban-trip_restaurant_481",
    "name": "영월 쌍용집",
    "address": "강원 영월군 한반도면 쌍용로 176-2 (쌍용리 452-8)",
    "lat": 37.179621,
    "lng": 128.325465
  },
  {
    "id": "sikgaek-baekban-trip_restaurant_482",
    "name": "영월 장릉보리밥집",
    "address": "강원 영월군 영월읍 단종로 178-10 (영흥리 1101-10)",
    "lat": 37.1955963,
    "lng": 128.4563182
  },
  {
    "id": "sikgaek-baekban-trip_restaurant_480",
    "name": "영월 제천식당",
    "address": "강원 영월군 주천면 도천길 3 (주천리 1144-1)",
    "lat": 37.2701482,
    "lng": 128.2669487
  },
  {
    "id": "sikgaek-baekban-trip_restaurant_540",
    "name": "예산 60년전통예산장터국밥",
    "address": "충남 예산군 예산읍 관양산길 12-1 (대회리 270-12)",
    "lat": 36.6760773,
    "lng": 126.848216
  },
  {
    "id": "sikgaek-baekban-trip_restaurant_541",
    "name": "예산 또순네식당",
    "address": "충남 예산군 덕산면 봉운로 25 (읍내리 258-2)",
    "lat": 36.7053026,
    "lng": 126.6703904
  },
  {
    "id": "sikgaek-baekban-trip_restaurant_542",
    "name": "예산 소복갈비",
    "address": "충남 예산군 예산읍 천변로195번길 9 (예산리 210-10)",
    "lat": 36.6796015,
    "lng": 126.850241
  },
  {
    "id": "sikgaek-baekban-trip_restaurant_539",
    "name": "예산 호반식당",
    "address": "충남 예산군 대흥면 예당로 848 (상중리 250-1)",
    "lat": 36.6050032,
    "lng": 126.7934104
  },
  {
    "id": "sikgaek-baekban-trip_restaurant_325",
    "name": "완도 대박집",
    "address": "전남 완도군 완도읍 개포로62번길 9-10 (군내리 1242-13)",
    "lat": 34.3172534,
    "lng": 126.7456877
  },
  {
    "id": "sikgaek-baekban-trip_restaurant_328",
    "name": "완도 동백식당",
    "address": "전남 완도군 완도읍 개포로56번길 7 (군내리 1245-17)",
    "lat": 34.3164737,
    "lng": 126.7470392
  },
  {
    "id": "sikgaek-baekban-trip_restaurant_324",
    "name": "완도 유일정식당",
    "address": "전남 완도군 완도읍 개포로 11-28 (군내리 1263-9)",
    "lat": 34.3166114,
    "lng": 126.7518866
  },
  {
    "id": "sikgaek-baekban-trip_restaurant_326",
    "name": "완도 장도식당슈퍼",
    "address": "전남 완도군 완도읍 청해진로1369번길 38-3 (장좌리 152-1)",
    "lat": 34.3598021,
    "lng": 126.7288827
  },
  {
    "id": "sikgaek-baekban-trip_restaurant_327",
    "name": "완도 진미횟집",
    "address": "전남 완도군 완도읍 장보고대로 282-1 (군내리 1371)",
    "lat": 34.3144683,
    "lng": 126.7552406
  },
  {
    "id": "sikgaek-baekban-trip_restaurant_281",
    "name": "용인 고기리막국수",
    "address": "경기 용인시 수지구 이종무로 157 (고기동 593-4)",
    "lat": 37.3599967,
    "lng": 127.0400912
  },
  {
    "id": "sikgaek-baekban-trip_restaurant_273",
    "name": "용인 교동면옥",
    "address": "경기 용인시 기흥구 마북로 135 (마북동 171-2)",
    "lat": 37.3025618,
    "lng": 127.1220495
  },
  {
    "id": "sikgaek-baekban-trip_restaurant_271",
    "name": "용인 금성식당",
    "address": "경기 용인시 처인구 양지면 남평로 16 (남곡리 127-17)",
    "lat": 37.2317809,
    "lng": 127.2868194
  },
  {
    "id": "sikgaek-baekban-trip_restaurant_274",
    "name": "용인 양지석쇠불고기",
    "address": "경기 용인시 처인구 양지면 양지로 116 (양지리 564-1)",
    "lat": 37.234239,
    "lng": 127.2813331
  },
  {
    "id": "sikgaek-baekban-trip_restaurant_275",
    "name": "용인 처인성토속음식",
    "address": "경기 용인시 처인구 남사읍 처인성로827번길 116-3 (완장리 361-3)",
    "lat": 37.1685952,
    "lng": 127.169334
  },
  {
    "id": "sikgaek-baekban-trip_restaurant_272",
    "name": "용인 한터장수오리골",
    "address": "경기 용인시 처인구 양지면 한터로662번길 39 (대대리 665-1)",
    "lat": 37.2577286,
    "lng": 127.2767789
  },
  {
    "id": "sikgaek-baekban-trip_restaurant_591",
    "name": "울산 대왕곰장어",
    "address": "울산 중구 번영로 325 (옥교동 115-28)",
    "lat": 35.5546883,
    "lng": 129.323774
  },
  {
    "id": "sikgaek-baekban-trip_restaurant_590",
    "name": "울산 진미불고기",
    "address": "울산 울주군 언양읍 동문길 47 (동부리 253-4)",
    "lat": 35.5668202,
    "lng": 129.1251819
  },
  {
    "id": "sikgaek-baekban-trip_restaurant_589",
    "name": "울산 함양집",
    "address": "울산 남구 삼산로228번길 19 (달동 1263-13)",
    "lat": 35.5364873,
    "lng": 129.3328569
  },
  {
    "id": "sikgaek-baekban-trip_restaurant_695",
    "name": "의왕 복진면",
    "address": "경기 의왕시 독정이길 28 (청계동 540-2)",
    "lat": 37.3933352,
    "lng": 127.0105407
  },
  {
    "id": "sikgaek-baekban-trip_restaurant_383",
    "name": "이천 강민주의들밥 본점",
    "address": "경기 이천시 마장면 지산로22번길 17 (이평리 371-3)",
    "lat": 37.2215129,
    "lng": 127.3679378
  },
  {
    "id": "sikgaek-baekban-trip_restaurant_384",
    "name": "이천 돌댕이석촌골농가맛집",
    "address": "경기 이천시 호법면 송갈로 102-8 (송갈리 397)",
    "lat": 37.1948452,
    "lng": 127.4329249
  },
  {
    "id": "sikgaek-baekban-trip_restaurant_382",
    "name": "이천 성순이묵은지",
    "address": "경기 이천시 중리천로 106 (중리동 462-5)",
    "lat": 37.2773045,
    "lng": 127.4484935
  },
  {
    "id": "sikgaek-baekban-trip_restaurant_385",
    "name": "이천 토사랑",
    "address": "경기 이천시 증신로 155 (증포동 371-1)",
    "lat": 37.2894612,
    "lng": 127.4518035
  },
  {
    "id": "sikgaek-baekban-trip_restaurant_484",
    "name": "익산 고려당",
    "address": "전북 익산시 중앙로 52 (갈산동 25)",
    "lat": 35.938305,
    "lng": 126.9523411
  },
  {
    "id": "sikgaek-baekban-trip_restaurant_486",
    "name": "익산 다가포가든",
    "address": "전북 익산시 현영길 40-28 (만석동 37-1)",
    "lat": 35.9640998,
    "lng": 126.9365116
  },
  {
    "id": "sikgaek-baekban-trip_restaurant_483",
    "name": "익산 시장비빔밥",
    "address": "전북 익산시 황등면 황등7길 25 (황등리 588-2)",
    "lat": 36.0059209,
    "lng": 126.9452619
  },
  {
    "id": "sikgaek-baekban-trip_restaurant_485",
    "name": "익산 장흥식당",
    "address": "전북 익산시 황등면 황등로 183 (황등리 771-4)",
    "lat": 36.0080527,
    "lng": 126.9437619
  },
  {
    "id": "sikgaek-baekban-trip_restaurant_507",
    "name": "인제 곰배령끝집",
    "address": "강원 인제군 기린면 곰배령길 232 (진동리 298)",
    "lat": 38.0357732,
    "lng": 128.4545511
  },
  {
    "id": "sikgaek-baekban-trip_restaurant_508",
    "name": "인제 대흥식당",
    "address": "강원 인제군 남면 빙어마을길 28 (부평리 1078-1)",
    "lat": 37.9997852,
    "lng": 128.1145344
  },
  {
    "id": "sikgaek-baekban-trip_restaurant_204",
    "name": "인제 매화촌해장국",
    "address": "강원 인제군 기린면 내린천로 3412 (현리 1155)",
    "lat": 37.9269727,
    "lng": 128.2930898
  },
  {
    "id": "sikgaek-baekban-trip_restaurant_205",
    "name": "인제 산채촌",
    "address": "강원 인제군 북면 어두원길 25 (원통리 215)",
    "lat": 38.1380813,
    "lng": 128.2320435
  },
  {
    "id": "sikgaek-baekban-trip_restaurant_509",
    "name": "인제 삼호숯불갈비",
    "address": "강원 인제군 인제읍 비봉로16번길 9 (상동리 264-5)",
    "lat": 38.0672918,
    "lng": 128.1721711
  },
  {
    "id": "sikgaek-baekban-trip_restaurant_203",
    "name": "인제 창바위맛집",
    "address": "강원 인제군 북면 미시령로 1272 (용대리 418-2)",
    "lat": 38.205554,
    "lng": 128.3532538
  },
  {
    "id": "sikgaek-baekban-trip_restaurant_583",
    "name": "인천 강화꽃게집",
    "address": "인천 강화군 내가면 중앙로 1222 (외포리 396-1)",
    "lat": 37.7044151,
    "lng": 126.3885018
  },
  {
    "id": "sikgaek-baekban-trip_restaurant_029",
    "name": "인천 강화집",
    "address": "인천 강화군 강화읍 강화대로 405-1 (신문리 1-13)",
    "lat": 37.7461024,
    "lng": 126.4860976
  },
  {
    "id": "sikgaek-baekban-trip_restaurant_199",
    "name": "인천 경인면옥",
    "address": "인천 중구 신포로46번길 38 (내동 154)",
    "lat": 37.4725325,
    "lng": 126.628212
  },
  {
    "id": "sikgaek-baekban-trip_restaurant_031",
    "name": "인천 국화집",
    "address": "인천 강화군 강화읍 강화대로430번길 2 (관청리 530-3)",
    "lat": 37.747576,
    "lng": 126.4839947
  },
  {
    "id": "sikgaek-baekban-trip_restaurant_198",
    "name": "인천 군봉묵은지김치찜",
    "address": "인천 연수구 비류대로150번길 13 (옥련동 116-29)",
    "lat": 37.4285378,
    "lng": 126.6514478
  },
  {
    "id": "sikgaek-baekban-trip_restaurant_545",
    "name": "인천 대성불고기",
    "address": "인천 중구 신포로27번길 29-1 (중앙동3가 1-2)",
    "lat": 37.4721342,
    "lng": 126.6235969
  },
  {
    "id": "sikgaek-baekban-trip_restaurant_070",
    "name": "인천 대전집",
    "address": "인천 중구 우현로39번길 7 (신포동 17-14)",
    "lat": 37.4707784,
    "lng": 126.6271069
  },
  {
    "id": "sikgaek-baekban-trip_restaurant_201",
    "name": "인천 돈타래게장정식",
    "address": "인천 부평구 열우물로 59 (십정동 403-3)",
    "lat": 37.4729868,
    "lng": 126.6995821
  },
  {
    "id": "sikgaek-baekban-trip_restaurant_027",
    "name": "인천 돌기와집",
    "address": "인천 강화군 송해면 상도숭뢰길116번길 39-10 (숭뢰리 221)",
    "lat": 37.7831609,
    "lng": 126.4769383
  },
  {
    "id": "sikgaek-baekban-trip_restaurant_028",
    "name": "인천 동막호",
    "address": "인천 강화군 화도면 해안남로 1429 (사기리 520-12)",
    "lat": 37.5914021,
    "lng": 126.4625828
  },
  {
    "id": "sikgaek-baekban-trip_restaurant_200",
    "name": "인천 등대경양식",
    "address": "인천 중구 제물량로 190 (해안동4가 3-3)",
    "lat": 37.4708285,
    "lng": 126.6231165
  },
  {
    "id": "sikgaek-baekban-trip_restaurant_582",
    "name": "인천 마니산산채",
    "address": "인천 강화군 화도면 해안남로 1182 (사기리 391)",
    "lat": 37.6109029,
    "lng": 126.456292
  },
  {
    "id": "sikgaek-baekban-trip_restaurant_312",
    "name": "인천 마산집",
    "address": "인천 미추홀구 경인로7번길 3-7 (숭의동 162-16)",
    "lat": 37.4630027,
    "lng": 126.643889
  },
  {
    "id": "sikgaek-baekban-trip_restaurant_072",
    "name": "인천 맷돌 칼국수",
    "address": "인천 중구 신포로 32-16 (신포동 55)",
    "lat": 37.4715146,
    "lng": 126.6257293
  },
  {
    "id": "sikgaek-baekban-trip_restaurant_066",
    "name": "인천 명월집",
    "address": "인천 중구 신포로23번길 41 (중앙동3가 4-46)",
    "lat": 37.4720756,
    "lng": 126.6227822
  },
  {
    "id": "sikgaek-baekban-trip_restaurant_071",
    "name": "인천 문화반점",
    "address": "인천 동구 금곡로 31 (송림동 233-3)",
    "lat": 37.4731961,
    "lng": 126.6390232
  },
  {
    "id": "sikgaek-baekban-trip_restaurant_030",
    "name": "인천 봉천가정식백반",
    "address": "인천 강화군 하점면 강화대로 1160 (신봉리 752-5)",
    "lat": 37.7728173,
    "lng": 126.4177026
  },
  {
    "id": "sikgaek-baekban-trip_restaurant_313",
    "name": "인천 부암갈비",
    "address": "인천 남동구 용천로 149 (간석동 130-12)",
    "lat": 37.4630356,
    "lng": 126.7143114
  },
  {
    "id": "sikgaek-baekban-trip_restaurant_067",
    "name": "인천 삼강옥",
    "address": "인천 중구 참외전로158번길 1 (경동 95-8)",
    "lat": 37.4730733,
    "lng": 126.6340778
  },
  {
    "id": "sikgaek-baekban-trip_restaurant_202",
    "name": "인천 송미옥",
    "address": "인천 동구 화도진로5번길 11-3 (금곡동 6-4)",
    "lat": 37.4733702,
    "lng": 126.6360651
  },
  {
    "id": "sikgaek-baekban-trip_restaurant_584",
    "name": "인천 수남호",
    "address": "인천 강화군 길상면 해안동로 96-18 (초지리 616-38)",
    "lat": 37.6355389,
    "lng": 126.5314209
  },
  {
    "id": "sikgaek-baekban-trip_restaurant_546",
    "name": "인천 신포동집",
    "address": "인천 중구 개항로 22 (관동3가 2-2)",
    "lat": 37.4716472,
    "lng": 126.6251541
  },
  {
    "id": "sikgaek-baekban-trip_restaurant_309",
    "name": "인천 연백식당",
    "address": "인천 중구 연안부두로 16 (항동7가 60)",
    "lat": 37.4565647,
    "lng": 126.6036068
  },
  {
    "id": "sikgaek-baekban-trip_restaurant_581",
    "name": "인천 용흥궁식당",
    "address": "인천 강화군 강화읍 동문안길21번길 22 (관청리 462)",
    "lat": 37.7478638,
    "lng": 126.4848918
  },
  {
    "id": "sikgaek-baekban-trip_restaurant_068",
    "name": "인천 인천당",
    "address": "인천 중구 참외전로 138 (용동 2)",
    "lat": 37.4741299,
    "lng": 126.6322186
  },
  {
    "id": "sikgaek-baekban-trip_restaurant_311",
    "name": "인천 중국물만두",
    "address": "인천 부평구 주부토로32번길 27 (부평동 252-56)",
    "lat": 37.4978859,
    "lng": 126.7267015
  },
  {
    "id": "sikgaek-baekban-trip_restaurant_026",
    "name": "인천 토가",
    "address": "인천 강화군 화도면 해안남로 1912 (흥왕리 566-1)",
    "lat": 37.6085187,
    "lng": 126.4175499
  },
  {
    "id": "sikgaek-baekban-trip_restaurant_069",
    "name": "인천 토시살숯불구이",
    "address": "인천 동구 송림로 10-1 (금곡동 10-17)",
    "lat": 37.4728751,
    "lng": 126.6365694
  },
  {
    "id": "sikgaek-baekban-trip_restaurant_543",
    "name": "인천 평양옥",
    "address": "인천 중구 도원로8번길 68 (신흥동3가 18-11)",
    "lat": 37.4640134,
    "lng": 126.6398839
  },
  {
    "id": "sikgaek-baekban-trip_restaurant_310",
    "name": "인천 해장국집",
    "address": "인천 동구 동산로87번길 6 (송림동 59-25)",
    "lat": 37.4750953,
    "lng": 126.6449431
  },
  {
    "id": "sikgaek-baekban-trip_restaurant_544",
    "name": "인천 현대물텀벙",
    "address": "인천 동구 샛골로 140 (송림동 59-19)",
    "lat": 37.4748787,
    "lng": 126.6446004
  },
  {
    "id": "sikgaek-baekban-trip_restaurant_642",
    "name": "장흥 남포수산",
    "address": "전남 장흥군 용산면 접정남포로 763-96 (상발리 822-1)",
    "lat": 34.6155198,
    "lng": 126.9930073
  },
  {
    "id": "sikgaek-baekban-trip_restaurant_644",
    "name": "장흥 만나숯불갈비",
    "address": "전남 장흥군 장흥읍 물레방앗간길 4 (건산리 379-22)",
    "lat": 34.6776609,
    "lng": 126.90815
  },
  {
    "id": "sikgaek-baekban-trip_restaurant_641",
    "name": "장흥 본전식당",
    "address": "전남 장흥군 회진면 노력도2길 1-1 (덕산리 2018-1)",
    "lat": 34.4643114,
    "lng": 126.9658592
  },
  {
    "id": "sikgaek-baekban-trip_restaurant_643",
    "name": "장흥 삭금쭈꾸미",
    "address": "전남 장흥군 장흥읍 물레방앗간길 14 (건산리 379-19)",
    "lat": 34.6783976,
    "lng": 126.9074237
  },
  {
    "id": "sikgaek-baekban-trip_restaurant_456",
    "name": "전주 금암피순대",
    "address": "전북 전주시 덕진구 기린대로 400-61 (금암동 729-3)",
    "lat": 35.8383703,
    "lng": 127.1328323
  },
  {
    "id": "sikgaek-baekban-trip_restaurant_099",
    "name": "전주 백일홍찐빵만두",
    "address": "전북 전주시 완산구 현무2길 67 (경원동3가 199)",
    "lat": 35.822463,
    "lng": 127.1492521
  },
  {
    "id": "sikgaek-baekban-trip_restaurant_101",
    "name": "전주 서울집 (서울식당)",
    "address": "전북 전주시 덕진구 모래내5길 10-4 (인후동2가 236-9)",
    "lat": 35.8335434,
    "lng": 127.1450479
  },
  {
    "id": "sikgaek-baekban-trip_restaurant_454",
    "name": "전주 성가떡집",
    "address": "전북 전주시 완산구 팔달로 249 (서노송동 639-40)",
    "lat": 35.8243763,
    "lng": 127.144442
  },
  {
    "id": "sikgaek-baekban-trip_restaurant_453",
    "name": "전주 운암콩나물국밥",
    "address": "전북 전주시 완산구 풍남문2길 63 (전동3가 2-242)",
    "lat": 35.8124262,
    "lng": 127.1466061
  },
  {
    "id": "sikgaek-baekban-trip_restaurant_452",
    "name": "전주 중앙쌀호떡",
    "address": "전북 전주시 완산구 태평3길 70 (태평동 36-1)",
    "lat": 35.8252546,
    "lng": 127.1424253
  },
  {
    "id": "sikgaek-baekban-trip_restaurant_097",
    "name": "전주 진미집본점",
    "address": "전북 전주시 완산구 노송여울2길 106 (서노송동 655-24)",
    "lat": 35.8268529,
    "lng": 127.1424162
  },
  {
    "id": "sikgaek-baekban-trip_restaurant_098",
    "name": "전주 태봉집",
    "address": "전북 전주시 완산구 전주객사5길 43-14 (고사동 195-1)",
    "lat": 35.8202607,
    "lng": 127.1445302
  },
  {
    "id": "sikgaek-baekban-trip_restaurant_096",
    "name": "전주 하숙영가마솥비빔밥 (중앙회관)",
    "address": "전북 전주시 완산구 전라감영5길 19-3 (중앙동3가 78-1)",
    "lat": 35.8174223,
    "lng": 127.1458248
  },
  {
    "id": "sikgaek-baekban-trip_restaurant_100",
    "name": "전주 한벽집",
    "address": "전북 전주시 완산구 전주천동로 4 (교동 2-9)",
    "lat": 35.8119833,
    "lng": 127.1600023
  },
  {
    "id": "sikgaek-baekban-trip_restaurant_455",
    "name": "전주 향리",
    "address": "전북 전주시 완산구 전주객사5길 83 (고사동 222-1)",
    "lat": 35.8217685,
    "lng": 127.1443683
  },
  {
    "id": "sikgaek-baekban-trip_restaurant_415",
    "name": "정읍 고부동학고을한우",
    "address": "전북 정읍시 고부면 교동2길 6 (남복리 207)",
    "lat": 35.6199061,
    "lng": 126.7727679
  },
  {
    "id": "sikgaek-baekban-trip_restaurant_413",
    "name": "정읍 국화회관",
    "address": "전북 정읍시 서부로 22 (연지동 259-31)",
    "lat": 35.5701114,
    "lng": 126.8455361
  },
  {
    "id": "sikgaek-baekban-trip_restaurant_417",
    "name": "정읍 백학정",
    "address": "전북 정읍시 태인면 태인로 29-3 (태성리 532)",
    "lat": 35.6518902,
    "lng": 126.9420095
  },
  {
    "id": "sikgaek-baekban-trip_restaurant_416",
    "name": "정읍 옛날팥죽",
    "address": "전북 정읍시 중앙로 162 (시기동 356-1)",
    "lat": 35.5649862,
    "lng": 126.8558979
  },
  {
    "id": "sikgaek-baekban-trip_restaurant_414",
    "name": "정읍 장작불",
    "address": "전북 정읍시 모촌길 50-31 (하모동 392-11)",
    "lat": 35.5707889,
    "lng": 126.8210742
  },
  {
    "id": "sikgaek-baekban-trip_restaurant_137",
    "name": "제주 나목도식당",
    "address": "제주 서귀포시 표선면 가시로613번길 60 (가시리 1877-6)",
    "lat": 33.3535672,
    "lng": 126.7717534
  },
  {
    "id": "sikgaek-baekban-trip_restaurant_108",
    "name": "제주 돈물국수",
    "address": "제주 제주시 연무정동길 2 (건입동 1090-1)",
    "lat": 33.5140153,
    "lng": 126.535399
  },
  {
    "id": "sikgaek-baekban-trip_restaurant_565",
    "name": "제주 돈지식당",
    "address": "제주 서귀포시 대정읍 하모항구로 60 (하모리 770-24)",
    "lat": 33.2187314,
    "lng": 126.2509251
  },